{
"type": "FeatureCollection",
"crs": { "type": "name", "properties": { "name": "urn:ogc:def:crs:OGC:1.3:CRS84" } },
"features": [
{ "type": "Feature", "properties": { "PRIMARYADDRESS": "3632 MAIN ST", "TOWNNAME": "MANCHESTER", "ESN": 135.0, "SITETYPE": "FIRE STATION", "Department_Type": "Volunteer Department", "Department_Name": "MANCHESTER" }, "geometry": { "type": "Point", "coordinates": [ -73.071465839824867, 43.162957363946816 ] } },
{ "type": "Feature", "properties": { "PRIMARYADDRESS": "22 DOVER HILL RD", "TOWNNAME": "DOVER", "ESN": 446.0, "SITETYPE": "FIRE STATION", "Department_Type": "Volunteer Department", "Department_Name": "EAST DOVER" }, "geometry": { "type": "Point", "coordinates": [ -72.770088821727938, 42.950356746772087 ] } },
{ "type": "Feature", "properties": { "PRIMARYADDRESS": "590 N MAIN ST", "TOWNNAME": "DANBY", "ESN": 299.0, "SITETYPE": "FIRE STATION", "Department_Type": "Volunteer Department", "Department_Name": "DANBY-MOUNT TABOR" }, "geometry": { "type": "Point", "coordinates": [ -72.997044491901804, 43.355198788576566 ] } },
{ "type": "Feature", "properties": { "PRIMARYADDRESS": "14 SCHOOL ST", "TOWNNAME": "MOUNT HOLLY", "ESN": 377.0, "SITETYPE": "FIRE STATION", "Department_Type": "Volunteer Department", "Department_Name": "MOUNT HOLLY" }, "geometry": { "type": "Point", "coordinates": [ -72.825252722762343, 43.446063653088622 ] } },
{ "type": "Feature", "properties": { "PRIMARYADDRESS": "7444 US ROUTE 2", "TOWNNAME": "NORTH HERO", "ESN": 236.0, "SITETYPE": "FIRE STATION", "Department_Type": "Volunteer Department", "Department_Name": "NORTH HERO" }, "geometry": { "type": "Point", "coordinates": [ -73.262185032181165, 44.863483132002017 ] } },
{ "type": "Feature", "properties": { "PRIMARYADDRESS": "5808 VT ROUTE 14", "TOWNNAME": "SHARON", "ESN": 230.0, "SITETYPE": "FIRE STATION", "Department_Type": "Volunteer Department", "Department_Name": "SHARON" }, "geometry": { "type": "Point", "coordinates": [ -72.468661907600818, 43.78113109079127 ] } },
{ "type": "Feature", "properties": { "PRIMARYADDRESS": "288 BROWNS TRCE", "TOWNNAME": "JERICHO", "ESN": 450.0, "SITETYPE": "FIRE STATION", "Department_Type": "Volunteer Department", "Department_Name": "UNDERHILL-JERICHO" }, "geometry": { "type": "Point", "coordinates": [ -72.96887081653054, 44.475875591713375 ] } },
{ "type": "Feature", "properties": { "PRIMARYADDRESS": "3665 VT ROUTE 14", "TOWNNAME": "WOODBURY", "ESN": 352.0, "SITETYPE": "FIRE STATION", "Department_Type": "Volunteer Department", "Department_Name": "WOODBURY" }, "geometry": { "type": "Point", "coordinates": [ -72.415477488362896, 44.440660468533707 ] } },
{ "type": "Feature", "properties": { "PRIMARYADDRESS": "2 PROSPECT ST", "TOWNNAME": "NORTH BENNINGTON", "ESN": 547.0, "SITETYPE": "FIRE STATION", "Department_Type": "Volunteer Department", "Department_Name": "NORTH BENNINGTON" }, "geometry": { "type": "Point", "coordinates": [ -73.241532713349855, 42.92877305061991 ] } },
{ "type": "Feature", "properties": { "PRIMARYADDRESS": "57 VT ROUTE 12", "TOWNNAME": "HARTLAND", "ESN": 296.0, "SITETYPE": "FIRE STATION", "Department_Type": "Volunteer Department", "Department_Name": "HARTLAND" }, "geometry": { "type": "Point", "coordinates": [ -72.407897956422431, 43.544620230065625 ] } },
{ "type": "Feature", "properties": { "PRIMARYADDRESS": "63 N BINGHAM ST", "TOWNNAME": "CORNWALL", "ESN": 155.0, "SITETYPE": "FIRE STATION", "Department_Type": "Volunteer Department", "Department_Name": "CORNWALL" }, "geometry": { "type": "Point", "coordinates": [ -73.234826542032124, 43.94465000464551 ] } },
{ "type": "Feature", "properties": { "PRIMARYADDRESS": "4964 VT ROUTE 36", "TOWNNAME": "FAIRFIELD", "ESN": 187.0, "SITETYPE": "FIRE STATION", "Department_Type": "Volunteer Department", "Department_Name": "FAIRFIELD" }, "geometry": { "type": "Point", "coordinates": [ -72.935932155235861, 44.80302382179493 ] } },
{ "type": "Feature", "properties": { "PRIMARYADDRESS": "49 SHADOW LAKE RD", "TOWNNAME": "CONCORD", "ESN": 321.0, "SITETYPE": "FIRE STATION", "Department_Type": "Volunteer Department", "Department_Name": "CONCORD" }, "geometry": { "type": "Point", "coordinates": [ -71.888853145955338, 44.428616162331394 ] } },
{ "type": "Feature", "properties": { "PRIMARYADDRESS": "34 GOVE HILL RD", "TOWNNAME": "LINCOLN", "ESN": 201.0, "SITETYPE": "FIRE STATION", "Department_Type": "Volunteer Department", "Department_Name": "LINCOLN" }, "geometry": { "type": "Point", "coordinates": [ -72.997345477390056, 44.105235364660537 ] } },
{ "type": "Feature", "properties": { "PRIMARYADDRESS": "102 MAIN ST", "TOWNNAME": "ORLEANS", "ESN": 205.0, "SITETYPE": "FIRE STATION", "Department_Type": "Volunteer Department", "Department_Name": "ORLEANS" }, "geometry": { "type": "Point", "coordinates": [ -72.205142386820697, 44.809526410033989 ] } },
{ "type": "Feature", "properties": { "PRIMARYADDRESS": "77 HARTNESS AVE", "TOWNNAME": "SPRINGFIELD", "ESN": 199.0, "SITETYPE": "FIRE STATION", "Department_Type": "Combination", "Department_Name": "SPRINGFIELD" }, "geometry": { "type": "Point", "coordinates": [ -72.472849049591801, 43.292522920971329 ] } },
{ "type": "Feature", "properties": { "PRIMARYADDRESS": "3 CLAY HILL RD", "TOWNNAME": "HARTLAND", "ESN": 508.0, "SITETYPE": "FIRE STATION", "Department_Type": "Volunteer Department", "Department_Name": "HARTLAND" }, "geometry": { "type": "Point", "coordinates": [ -72.353736901330308, 43.595202075423067 ] } },
{ "type": "Feature", "properties": { "PRIMARYADDRESS": "67 POND ST", "TOWNNAME": "LUDLOW", "ESN": 198.0, "SITETYPE": "FIRE STATION", "Department_Type": "Volunteer Department", "Department_Name": "LUDLOW" }, "geometry": { "type": "Point", "coordinates": [ -72.706719015407046, 43.401759217343617 ] } },
{ "type": "Feature", "properties": { "PRIMARYADDRESS": "832 VILLAGE RD", "TOWNNAME": "CORINTH", "ESN": 301.0, "SITETYPE": "FIRE STATION", "Department_Type": "Volunteer Department", "Department_Name": "EAST CORINTH" }, "geometry": { "type": "Point", "coordinates": [ -72.221813557870917, 44.065879681319743 ] } },
{ "type": "Feature", "properties": { "PRIMARYADDRESS": "25 DUGWAY RD", "TOWNNAME": "RIPTON", "ESN": 306.0, "SITETYPE": "FIRE STATION", "Department_Type": "Volunteer Department", "Department_Name": "RIPTON" }, "geometry": { "type": "Point", "coordinates": [ -73.037328344903969, 43.986208278876767 ] } },
{ "type": "Feature", "properties": { "PRIMARYADDRESS": "61 MAIN ST", "TOWNNAME": "MONTPELIER", "ESN": 372.0, "SITETYPE": "FIRE STATION", "Department_Type": "Career Department", "Department_Name": "MONTPELIER" }, "geometry": { "type": "Point", "coordinates": [ -72.575382443672666, 44.259457137517636 ] } },
{ "type": "Feature", "properties": { "PRIMARYADDRESS": "62 JEFF WILLIAMS WAY", "TOWNNAME": "MANCHESTER", "ESN": 135.0, "SITETYPE": "FIRE STATION", "Department_Type": "Volunteer Department", "Department_Name": "MANCHESTER" }, "geometry": { "type": "Point", "coordinates": [ -73.045656220543009, 43.188846528097194 ] } },
{ "type": "Feature", "properties": { "PRIMARYADDRESS": "326 SCHOOL ST", "TOWNNAME": "WOLCOTT", "ESN": 106.0, "SITETYPE": "FIRE STATION", "Department_Type": "Volunteer Department", "Department_Name": "WOLCOTT" }, "geometry": { "type": "Point", "coordinates": [ -72.458331245160977, 44.542288252768486 ] } },
{ "type": "Feature", "properties": { "PRIMARYADDRESS": "5 TRANSPORT PARK", "TOWNNAME": "ROCKINGHAM", "ESN": 439.0, "SITETYPE": "FIRE STATION", "Department_Type": "Volunteer Department", "Department_Name": "ROCKINGHAM" }, "geometry": { "type": "Point", "coordinates": [ -72.506913351277205, 43.201573570859196 ] } },
{ "type": "Feature", "properties": { "PRIMARYADDRESS": "333 MAPLE DR", "TOWNNAME": "WHITINGHAM", "ESN": 392.0, "SITETYPE": "FIRE STATION", "Department_Type": "Volunteer Department", "Department_Name": "WHITINGHAM" }, "geometry": { "type": "Point", "coordinates": [ -72.882058433648481, 42.791917564664693 ] } },
{ "type": "Feature", "properties": { "PRIMARYADDRESS": "272 MCKINLEY AVE", "TOWNNAME": "RUTLAND TOWN", "ESN": 220.0, "SITETYPE": "FIRE STATION", "Department_Type": "Volunteer Department", "Department_Name": "RUTLAND TOWN" }, "geometry": { "type": "Point", "coordinates": [ -72.980361931134922, 43.635374900565004 ] } },
{ "type": "Feature", "properties": { "PRIMARYADDRESS": "166 BUCK HILL RD", "TOWNNAME": "SHAFTSBURY", "ESN": 196.0, "SITETYPE": "FIRE STATION", "Department_Type": "Volunteer Department", "Department_Name": "SHAFTSBURY" }, "geometry": { "type": "Point", "coordinates": [ -73.207621604478504, 42.945752058090712 ] } },
{ "type": "Feature", "properties": { "PRIMARYADDRESS": "1952 VT ROUTE 30", "TOWNNAME": "CORNWALL", "ESN": 155.0, "SITETYPE": "FIRE STATION", "Department_Type": "Volunteer Department", "Department_Name": "CORNWALL" }, "geometry": { "type": "Point", "coordinates": [ -73.206981419688148, 43.970834281335115 ] } },
{ "type": "Feature", "properties": { "PRIMARYADDRESS": "60 CHAPEL ST", "TOWNNAME": "NEWBURY", "ESN": 413.0, "SITETYPE": "FIRE STATION", "Department_Type": "Volunteer Department", "Department_Name": "NEWBURY" }, "geometry": { "type": "Point", "coordinates": [ -72.058850720011037, 44.079651255130557 ] } },
{ "type": "Feature", "properties": { "PRIMARYADDRESS": "61 FRANKLIN ST", "TOWNNAME": "BRANDON", "ESN": 312.0, "SITETYPE": "FIRE STATION", "Department_Type": "Volunteer Department", "Department_Name": "BRANDON" }, "geometry": { "type": "Point", "coordinates": [ -73.079945632117827, 43.793695599775475 ] } },
{ "type": "Feature", "properties": { "PRIMARYADDRESS": "181 MAIN ST N", "TOWNNAME": "BAKERSFIELD", "ESN": 183.0, "SITETYPE": "FIRE STATION", "Department_Type": "Volunteer Department", "Department_Name": "BAKERSFIELD" }, "geometry": { "type": "Point", "coordinates": [ -72.801418845431257, 44.784604777284272 ] } },
{ "type": "Feature", "properties": { "PRIMARYADDRESS": "32 BROOK ST", "TOWNNAME": "WHITINGHAM", "ESN": 392.0, "SITETYPE": "FIRE STATION", "Department_Type": "Volunteer Department", "Department_Name": "WHITINGHAM" }, "geometry": { "type": "Point", "coordinates": [ -72.885059827104925, 42.789783686955765 ] } },
{ "type": "Feature", "properties": { "PRIMARYADDRESS": "149 ROUTE 132", "TOWNNAME": "STRAFFORD", "ESN": 272.0, "SITETYPE": "FIRE STATION", "Department_Type": "Volunteer Department", "Department_Name": "STRAFFORD" }, "geometry": { "type": "Point", "coordinates": [ -72.350340593627152, 43.837791104445699 ] } },
{ "type": "Feature", "properties": { "PRIMARYADDRESS": "119 MILL ST", "TOWNNAME": "BARRE TOWN", "ESN": 399.0, "SITETYPE": "FIRE STATION", "Department_Type": "Volunteer Department", "Department_Name": "BARRE TOWN" }, "geometry": { "type": "Point", "coordinates": [ -72.450209638499217, 44.159897064462797 ] } },
{ "type": "Feature", "properties": { "PRIMARYADDRESS": "142 STEBBINS LN", "TOWNNAME": "STAMFORD", "ESN": 253.0, "SITETYPE": "FIRE STATION", "Department_Type": "Volunteer Department", "Department_Name": "STAMFORD" }, "geometry": { "type": "Point", "coordinates": [ -73.07089739543774, 42.755737802272549 ] } },
{ "type": "Feature", "properties": { "PRIMARYADDRESS": "8 FIREHOUSE LN", "TOWNNAME": "MIDDLETOWN SPRINGS", "ESN": 417.0, "SITETYPE": "FIRE STATION", "Department_Type": "Volunteer Department", "Department_Name": "MIDDLETOWN SPRINGS" }, "geometry": { "type": "Point", "coordinates": [ -73.11736640811985, 43.486480780552363 ] } },
{ "type": "Feature", "properties": { "PRIMARYADDRESS": "63 GORE RD", "TOWNNAME": "BENNINGTON", "ESN": 401.0, "SITETYPE": "FIRE STATION", "Department_Type": "Volunteer Department", "Department_Name": "BENNINGTON RURAL" }, "geometry": { "type": "Point", "coordinates": [ -73.176159204379474, 42.870809134989926 ] } },
{ "type": "Feature", "properties": { "PRIMARYADDRESS": "454 WOODSTOCK RD", "TOWNNAME": "WOODSTOCK", "ESN": 250.0, "SITETYPE": "FIRE STATION", "Department_Type": "Volunteer Department", "Department_Name": "WOODSTOCK" }, "geometry": { "type": "Point", "coordinates": [ -72.505303575126021, 43.630185406219539 ] } },
{ "type": "Feature", "properties": { "PRIMARYADDRESS": "619 BUSINESS ROUTE 4", "TOWNNAME": "RUTLAND TOWN", "ESN": 220.0, "SITETYPE": "FIRE STATION", "Department_Type": "Volunteer Department", "Department_Name": "RUTLAND TOWN" }, "geometry": { "type": "Point", "coordinates": [ -73.015776233972005, 43.603119449695107 ] } },
{ "type": "Feature", "properties": { "PRIMARYADDRESS": "2806 VT ROUTE 153", "TOWNNAME": "WEST PAWLET", "ESN": 378.0, "SITETYPE": "FIRE STATION", "Department_Type": "Volunteer Department", "Department_Name": "WEST PAWLET" }, "geometry": { "type": "Point", "coordinates": [ -73.25091833992731, 43.353268041788532 ] } },
{ "type": "Feature", "properties": { "PRIMARYADDRESS": "8 TOWN GARAGE RD", "TOWNNAME": "STRATTON", "ESN": 562.0, "SITETYPE": "FIRE STATION", "Department_Type": "Volunteer Department", "Department_Name": "STRATTON MOUNTAIN" }, "geometry": { "type": "Point", "coordinates": [ -72.883010822425177, 43.056572189756146 ] } },
{ "type": "Feature", "properties": { "PRIMARYADDRESS": "104 CENTER ST", "TOWNNAME": "RUTLAND CITY", "ESN": 336.0, "SITETYPE": "FIRE STATION", "Department_Type": "Career Department", "Department_Name": "RUTLAND CITY" }, "geometry": { "type": "Point", "coordinates": [ -72.972861488386897, 43.606966305529738 ] } },
{ "type": "Feature", "properties": { "PRIMARYADDRESS": "2241 MAIN ST", "TOWNNAME": "ISLE LA MOTTE", "ESN": 237.0, "SITETYPE": "FIRE STATION", "Department_Type": "Volunteer Department", "Department_Name": "ISLE LAMOTTE" }, "geometry": { "type": "Point", "coordinates": [ -73.337925156459491, 44.878006828939917 ] } },
{ "type": "Feature", "properties": { "PRIMARYADDRESS": "60 MAIN ST", "TOWNNAME": "LONDONDERRY", "ESN": 527.0, "SITETYPE": "FIRE STATION", "Department_Type": "Volunteer Department", "Department_Name": "SOUTH LONDONDERRY" }, "geometry": { "type": "Point", "coordinates": [ -72.814351175543052, 43.192004781446258 ] } },
{ "type": "Feature", "properties": { "PRIMARYADDRESS": "131 COMMUNITY LN", "TOWNNAME": "SOUTH HERO", "ESN": 422.0, "SITETYPE": "FIRE STATION", "Department_Type": "Volunteer Department", "Department_Name": "SOUTH HERO" }, "geometry": { "type": "Point", "coordinates": [ -73.296451504735046, 44.647317456665277 ] } },
{ "type": "Feature", "properties": { "PRIMARYADDRESS": "25 MORGAN HILL RD", "TOWNNAME": "WOODSTOCK", "ESN": 250.0, "SITETYPE": "FIRE STATION", "Department_Type": "Volunteer Department", "Department_Name": "WOODSTOCK" }, "geometry": { "type": "Point", "coordinates": [ -72.532436925269877, 43.558322167776055 ] } },
{ "type": "Feature", "properties": { "PRIMARYADDRESS": "23 FIREHOUSE RD", "TOWNNAME": "CLARENDON", "ESN": 222.0, "SITETYPE": "FIRE STATION", "Department_Type": "Volunteer Department", "Department_Name": "CLARENDON" }, "geometry": { "type": "Point", "coordinates": [ -73.013980131498016, 43.521118477546167 ] } },
{ "type": "Feature", "properties": { "PRIMARYADDRESS": "266 CHITTENDEN RD", "TOWNNAME": "CHITTENDEN", "ESN": 160.0, "SITETYPE": "FIRE STATION", "Department_Type": "Volunteer Department", "Department_Name": "CHITTENDEN" }, "geometry": { "type": "Point", "coordinates": [ -72.949088830753581, 43.706367790763508 ] } },
{ "type": "Feature", "properties": { "PRIMARYADDRESS": "153 THOMPSON RD", "TOWNNAME": "RICHMOND", "ESN": 334.0, "SITETYPE": "FIRE STATION", "Department_Type": "Volunteer Department", "Department_Name": "RICHMOND" }, "geometry": { "type": "Point", "coordinates": [ -73.001497306488304, 44.39689082164201 ] } },
{ "type": "Feature", "properties": { "PRIMARYADDRESS": "1005 HAPGOOD POND RD", "TOWNNAME": "PERU", "ESN": 332.0, "SITETYPE": "FIRE STATION", "Department_Type": "Volunteer Department", "Department_Name": "PERU" }, "geometry": { "type": "Point", "coordinates": [ -72.893407696723642, 43.244387742811348 ] } },
{ "type": "Feature", "properties": { "PRIMARYADDRESS": "212 CENTERVILLE RD", "TOWNNAME": "HYDE PARK", "ESN": 114.0, "SITETYPE": "FIRE STATION", "Department_Type": "Volunteer Department", "Department_Name": "HYDE PARK" }, "geometry": { "type": "Point", "coordinates": [ -72.608987231115862, 44.595288724983398 ] } },
{ "type": "Feature", "properties": { "PRIMARYADDRESS": "2673 VT ROUTE 153", "TOWNNAME": "RUPERT", "ESN": 214.0, "SITETYPE": "FIRE STATION", "Department_Type": "Volunteer Department", "Department_Name": "RUPERT" }, "geometry": { "type": "Point", "coordinates": [ -73.226882406588444, 43.257237041798319 ] } },
{ "type": "Feature", "properties": { "PRIMARYADDRESS": "103 GROUT AVE", "TOWNNAME": "WESTMINSTER", "ESN": 157.0, "SITETYPE": "FIRE STATION", "Department_Type": "Volunteer Department", "Department_Name": "WESTMINSTER" }, "geometry": { "type": "Point", "coordinates": [ -72.45694474655393, 43.067425656771469 ] } },
{ "type": "Feature", "properties": { "PRIMARYADDRESS": "2661 DUCK POND RD", "TOWNNAME": "WATERFORD", "ESN": 300.0, "SITETYPE": "FIRE STATION", "Department_Type": "Volunteer Department", "Department_Name": "WATERFORD" }, "geometry": { "type": "Point", "coordinates": [ -71.954514526769231, 44.379412017102183 ] } },
{ "type": "Feature", "properties": { "PRIMARYADDRESS": "7259 VT ROUTE 131", "TOWNNAME": "WEATHERSFIELD", "ESN": 167.0, "SITETYPE": "FIRE STATION", "Department_Type": "Volunteer Department", "Department_Name": "WEST WEATHERSFIELD" }, "geometry": { "type": "Point", "coordinates": [ -72.513513950317972, 43.400932495541305 ] } },
{ "type": "Feature", "properties": { "PRIMARYADDRESS": "33 WRIGHT WAY", "TOWNNAME": "WESTMINSTER", "ESN": 157.0, "SITETYPE": "FIRE STATION", "Department_Type": "Volunteer Department", "Department_Name": "WESTMINSTER" }, "geometry": { "type": "Point", "coordinates": [ -72.541642356322669, 43.069401914607532 ] } },
{ "type": "Feature", "properties": { "PRIMARYADDRESS": "3 PEARL ST", "TOWNNAME": "ESSEX JUNCTION VILLAGE", "ESN": 454.0, "SITETYPE": "FIRE STATION", "Department_Type": "Volunteer Department", "Department_Name": "ESSEX JUNCTION" }, "geometry": { "type": "Point", "coordinates": [ -73.111791655698525, 44.491135608080924 ] } },
{ "type": "Feature", "properties": { "PRIMARYADDRESS": "107 FURNACE ST", "TOWNNAME": "RANDOLPH", "ESN": 409.0, "SITETYPE": "FIRE STATION", "Department_Type": "Volunteer Department", "Department_Name": "RANDOLPH CENTER" }, "geometry": { "type": "Point", "coordinates": [ -72.605152988056759, 43.942710174275497 ] } },
{ "type": "Feature", "properties": { "PRIMARYADDRESS": "3902 VT ROUTE 116", "TOWNNAME": "STARKSBORO", "ESN": 287.0, "SITETYPE": "FIRE STATION", "Department_Type": "Volunteer Department", "Department_Name": "STARKSBORO" }, "geometry": { "type": "Point", "coordinates": [ -73.057854731136047, 44.241226621347273 ] } },
{ "type": "Feature", "properties": { "PRIMARYADDRESS": "5051 VT ROUTE 100", "TOWNNAME": "GRANVILLE", "ESN": 324.0, "SITETYPE": "FIRE STATION", "Department_Type": "Volunteer Department", "Department_Name": "GRANVILLE" }, "geometry": { "type": "Point", "coordinates": [ -72.843286115632708, 43.980857724787747 ] } },
{ "type": "Feature", "properties": { "PRIMARYADDRESS": "7373 POMFRET RD", "TOWNNAME": "POMFRET", "ESN": 271.0, "SITETYPE": "FIRE STATION", "Department_Type": "Volunteer Department", "Department_Name": "POMFRET" }, "geometry": { "type": "Point", "coordinates": [ -72.487798290339697, 43.719740939024426 ] } },
{ "type": "Feature", "properties": { "PRIMARYADDRESS": "241 JUSTIN MORRILL MEMORIAL HWY", "TOWNNAME": "STRAFFORD", "ESN": 272.0, "SITETYPE": "FIRE STATION", "Department_Type": "Volunteer Department", "Department_Name": "STRAFFORD" }, "geometry": { "type": "Point", "coordinates": [ -72.377274048295817, 43.867091436235938 ] } },
{ "type": "Feature", "properties": { "PRIMARYADDRESS": "55 FIREHOUSE LN", "TOWNNAME": "POULTNEY", "ESN": 304.0, "SITETYPE": "FIRE STATION", "Department_Type": "Volunteer Department", "Department_Name": "POULTNEY" }, "geometry": { "type": "Point", "coordinates": [ -73.234045476946051, 43.520846541118225 ] } },
{ "type": "Feature", "properties": { "PRIMARYADDRESS": "217 VT ROUTE 58 E", "TOWNNAME": "IRASBURG", "ESN": 202.0, "SITETYPE": "FIRE STATION", "Department_Type": "Volunteer Department", "Department_Name": "IRASBURG" }, "geometry": { "type": "Point", "coordinates": [ -72.276021409558552, 44.803675630894553 ] } },
{ "type": "Feature", "properties": { "PRIMARYADDRESS": "15 MAIN ST N", "TOWNNAME": "NEWBURY", "ESN": 479.0, "SITETYPE": "FIRE STATION", "Department_Type": "Volunteer Department", "Department_Name": "WELLS RIVER" }, "geometry": { "type": "Point", "coordinates": [ -72.047402667755719, 44.154351217500789 ] } },
{ "type": "Feature", "properties": { "PRIMARYADDRESS": "540 VT ROUTE 131", "TOWNNAME": "WEATHERSFIELD", "ESN": 168.0, "SITETYPE": "FIRE STATION", "Department_Type": "Volunteer Department", "Department_Name": "ASCUTNEY" }, "geometry": { "type": "Point", "coordinates": [ -72.416077148086032, 43.401317469145226 ] } },
{ "type": "Feature", "properties": { "PRIMARYADDRESS": "357 E MAIN ST", "TOWNNAME": "RICHMOND", "ESN": 334.0, "SITETYPE": "FIRE STATION", "Department_Type": "Volunteer Department", "Department_Name": "RICHMOND" }, "geometry": { "type": "Point", "coordinates": [ -72.987248100632954, 44.402061034782754 ] } },
{ "type": "Feature", "properties": { "PRIMARYADDRESS": "1726 ROXBURY RD", "TOWNNAME": "ROXBURY", "ESN": 247.0, "SITETYPE": "FIRE STATION", "Department_Type": "Volunteer Department", "Department_Name": "ROXBURY" }, "geometry": { "type": "Point", "coordinates": [ -72.7343633104676, 44.090117127816761 ] } },
{ "type": "Feature", "properties": { "PRIMARYADDRESS": "212 SAFFORD ST", "TOWNNAME": "BENNINGTON", "ESN": 403.0, "SITETYPE": "FIRE STATION", "Department_Type": "Volunteer Department", "Department_Name": "BENNINGTON" }, "geometry": { "type": "Point", "coordinates": [ -73.187969865659696, 42.881180098516417 ] } },
{ "type": "Feature", "properties": { "PRIMARYADDRESS": "63 BEAN HILL RD", "TOWNNAME": "GLOVER", "ESN": 144.0, "SITETYPE": "FIRE STATION", "Department_Type": "Volunteer Department", "Department_Name": "GLOVER" }, "geometry": { "type": "Point", "coordinates": [ -72.188620379100968, 44.706910714200127 ] } },
{ "type": "Feature", "properties": { "PRIMARYADDRESS": "5154 MAIN ST", "TOWNNAME": "FRANKLIN", "ESN": 188.0, "SITETYPE": "FIRE STATION", "Department_Type": "Volunteer Department", "Department_Name": "FRANKLIN" }, "geometry": { "type": "Point", "coordinates": [ -72.915128889744281, 44.981448629986446 ] } },
{ "type": "Feature", "properties": { "PRIMARYADDRESS": "4960 MAIN RD", "TOWNNAME": "HUNTINGTON", "ESN": 356.0, "SITETYPE": "FIRE STATION", "Department_Type": "Volunteer Department", "Department_Name": "HUNTINGTON" }, "geometry": { "type": "Point", "coordinates": [ -72.966158264192629, 44.294975937504063 ] } },
{ "type": "Feature", "properties": { "PRIMARYADDRESS": "40 NCO DR", "TOWNNAME": "SOUTH BURLINGTON", "ESN": 578.0, "SITETYPE": "FIRE STATION", "Department_Type": "Career Department", "Department_Name": "VT ANG" }, "geometry": { "type": "Point", "coordinates": [ -73.15126585987656, 44.476050965546207 ] } },
{ "type": "Feature", "properties": { "PRIMARYADDRESS": "53 SAFFORD ST", "TOWNNAME": "ROYALTON", "ESN": 335.0, "SITETYPE": "FIRE STATION", "Department_Type": "Volunteer Department", "Department_Name": "SOUTH ROYALTON" }, "geometry": { "type": "Point", "coordinates": [ -72.519305809331769, 43.818444890910811 ] } },
{ "type": "Feature", "properties": { "PRIMARYADDRESS": "220 COLLEGE PKWY", "TOWNNAME": "COLCHESTER", "ESN": 470.0, "SITETYPE": "FIRE STATION", "Department_Type": "Volunteer Department", "Department_Name": "COLCHESTER" }, "geometry": { "type": "Point", "coordinates": [ -73.166296158920389, 44.492625440401682 ] } },
{ "type": "Feature", "properties": { "PRIMARYADDRESS": "11 FIREHOUSE LN", "TOWNNAME": "NORWICH", "ESN": 331.0, "SITETYPE": "FIRE STATION", "Department_Type": "Volunteer Department", "Department_Name": "NORWICH" }, "geometry": { "type": "Point", "coordinates": [ -72.307877874632297, 43.71596223135883 ] } },
{ "type": "Feature", "properties": { "PRIMARYADDRESS": "349 FAIRGROUND RD", "TOWNNAME": "CORINTH", "ESN": 301.0, "SITETYPE": "FIRE STATION", "Department_Type": "Volunteer Department", "Department_Name": "EAST CORINTH" }, "geometry": { "type": "Point", "coordinates": [ -72.220798073284058, 44.052099498766445 ] } },
{ "type": "Feature", "properties": { "PRIMARYADDRESS": "23 FERGUSON AVE", "TOWNNAME": "BURLINGTON", "ESN": 355.0, "SITETYPE": "FIRE STATION", "Department_Type": "Career Department", "Department_Name": "BURLINGTON" }, "geometry": { "type": "Point", "coordinates": [ -73.216801656820536, 44.454185598556059 ] } },
{ "type": "Feature", "properties": { "PRIMARYADDRESS": "838 CHURCH RD", "TOWNNAME": "COLCHESTER", "ESN": 320.0, "SITETYPE": "FIRE STATION", "Department_Type": "Volunteer Department", "Department_Name": "COLCHESTER" }, "geometry": { "type": "Point", "coordinates": [ -73.251376471719595, 44.539254989811319 ] } },
{ "type": "Feature", "properties": { "PRIMARYADDRESS": "44 MAIN ST", "TOWNNAME": "SAXTONS RIVER", "ESN": 444.0, "SITETYPE": "FIRE STATION", "Department_Type": "Volunteer Department", "Department_Name": "SAXTONS RIVER" }, "geometry": { "type": "Point", "coordinates": [ -72.510201615758618, 43.138280102596532 ] } },
{ "type": "Feature", "properties": { "PRIMARYADDRESS": "4645 MONUMENT HILL RD", "TOWNNAME": "HUBBARDTON", "ESN": 328.0, "SITETYPE": "FIRE STATION", "Department_Type": "Volunteer Department", "Department_Name": "HUBBARDTON" }, "geometry": { "type": "Point", "coordinates": [ -73.13037529169182, 43.709191429116849 ] } },
{ "type": "Feature", "properties": { "PRIMARYADDRESS": "251 LOWER MAIN ST W", "TOWNNAME": "JOHNSON", "ESN": 104.0, "SITETYPE": "FIRE STATION", "Department_Type": "Volunteer Department", "Department_Name": "JOHNSON" }, "geometry": { "type": "Point", "coordinates": [ -72.684005302058708, 44.636095255317308 ] } },
{ "type": "Feature", "properties": { "PRIMARYADDRESS": "136 S WINOOSKI AVE", "TOWNNAME": "BURLINGTON", "ESN": 355.0, "SITETYPE": "FIRE STATION", "Department_Type": "Career Department", "Department_Name": "BURLINGTON" }, "geometry": { "type": "Point", "coordinates": [ -73.21055670436327, 44.476587122935221 ] } },
{ "type": "Feature", "properties": { "PRIMARYADDRESS": "79 WEST ST", "TOWNNAME": "BRISTOL", "ESN": 488.0, "SITETYPE": "FIRE STATION", "Department_Type": "Volunteer Department", "Department_Name": "BRISTOL" }, "geometry": { "type": "Point", "coordinates": [ -73.088800035284279, 44.132557721688272 ] } },
{ "type": "Feature", "properties": { "PRIMARYADDRESS": "587 OLD HOLLOW RD", "TOWNNAME": "FERRISBURGH", "ESN": 285.0, "SITETYPE": "FIRE STATION", "Department_Type": "Volunteer Department", "Department_Name": "FERRISBURGH" }, "geometry": { "type": "Point", "coordinates": [ -73.216618498622992, 44.25929663861163 ] } },
{ "type": "Feature", "properties": { "PRIMARYADDRESS": "92 DORFNER DR", "TOWNNAME": "PITTSFORD", "ESN": 163.0, "SITETYPE": "FIRE STATION", "Department_Type": "Volunteer Department", "Department_Name": "PITTSFORD" }, "geometry": { "type": "Point", "coordinates": [ -73.017467457198052, 43.717223635726114 ] } },
{ "type": "Feature", "properties": { "PRIMARYADDRESS": "779 SOUTH RD", "TOWNNAME": "MARLBORO", "ESN": 394.0, "SITETYPE": "FIRE STATION", "Department_Type": "Volunteer Department", "Department_Name": "MARLBORO" }, "geometry": { "type": "Point", "coordinates": [ -72.724634885207479, 42.856125150572673 ] } },
{ "type": "Feature", "properties": { "PRIMARYADDRESS": "5862 VT ROUTE 100", "TOWNNAME": "LONDONDERRY", "ESN": 329.0, "SITETYPE": "FIRE STATION", "Department_Type": "Volunteer Department", "Department_Name": "LONDONDERRY" }, "geometry": { "type": "Point", "coordinates": [ -72.806478227692679, 43.22775122803337 ] } },
{ "type": "Feature", "properties": { "PRIMARYADDRESS": "483 MAIN ST", "TOWNNAME": "COLCHESTER", "ESN": 320.0, "SITETYPE": "FIRE STATION", "Department_Type": "Volunteer Department", "Department_Name": "COLCHESTER" }, "geometry": { "type": "Point", "coordinates": [ -73.156302455673355, 44.547287631746237 ] } },
{ "type": "Feature", "properties": { "PRIMARYADDRESS": "83 SAMPSONVILLE RD", "TOWNNAME": "ENOSBURGH", "ESN": 186.0, "SITETYPE": "FIRE STATION", "Department_Type": "Volunteer Department", "Department_Name": "ENOSBURGH FALLS" }, "geometry": { "type": "Point", "coordinates": [ -72.795681307674016, 44.914906557043977 ] } },
{ "type": "Feature", "properties": { "PRIMARYADDRESS": "98 DEPOT ST", "TOWNNAME": "POULTNEY", "ESN": 304.0, "SITETYPE": "FIRE STATION", "Department_Type": "Volunteer Department", "Department_Name": "POULTNEY" }, "geometry": { "type": "Point", "coordinates": [ -73.236330463198712, 43.518503542328887 ] } },
{ "type": "Feature", "properties": { "PRIMARYADDRESS": "513 MAIN ST", "TOWNNAME": "CAVENDISH", "ESN": 107.0, "SITETYPE": "FIRE STATION", "Department_Type": "Volunteer Department", "Department_Name": "PROCTORSVILLE" }, "geometry": { "type": "Point", "coordinates": [ -72.638169573573151, 43.383472871374565 ] } },
{ "type": "Feature", "properties": { "PRIMARYADDRESS": "927 VT ROUTE 113", "TOWNNAME": "WEST FAIRLEE", "ESN": 347.0, "SITETYPE": "FIRE STATION", "Department_Type": "Volunteer Department", "Department_Name": "WEST FAIRLEE" }, "geometry": { "type": "Point", "coordinates": [ -72.263230393842576, 43.91054004601132 ] } },
{ "type": "Feature", "properties": { "PRIMARYADDRESS": "900 WEST RD", "TOWNNAME": "BENNINGTON", "ESN": 401.0, "SITETYPE": "FIRE STATION", "Department_Type": "Volunteer Department", "Department_Name": "BENNINGTON RURAL" }, "geometry": { "type": "Point", "coordinates": [ -73.229111058503932, 42.881470326576498 ] } },
{ "type": "Feature", "properties": { "PRIMARYADDRESS": "3747 STATES PRISON HOLLOW RD", "TOWNNAME": "MONKTON", "ESN": 207.0, "SITETYPE": "FIRE STATION", "Department_Type": "Volunteer Department", "Department_Name": "MONKTON" }, "geometry": { "type": "Point", "coordinates": [ -73.111496376742465, 44.255513676493393 ] } },
{ "type": "Feature", "properties": { "PRIMARYADDRESS": "208 GRAFTON RD", "TOWNNAME": "TOWNSHEND", "ESN": 263.0, "SITETYPE": "FIRE STATION", "Department_Type": "Volunteer Department", "Department_Name": "TOWNSHEND" }, "geometry": { "type": "Point", "coordinates": [ -72.667258439007682, 43.049049282479977 ] } },
{ "type": "Feature", "properties": { "PRIMARYADDRESS": "9800 COLD RIVER RD", "TOWNNAME": "SHREWSBURY", "ESN": 380.0, "SITETYPE": "FIRE STATION", "Department_Type": "Volunteer Department", "Department_Name": "SHREWSBURY" }, "geometry": { "type": "Point", "coordinates": [ -72.828988368291149, 43.529351484023259 ] } },
{ "type": "Feature", "properties": { "PRIMARYADDRESS": "188 SAND HILL RD", "TOWNNAME": "ESSEX TOWN", "ESN": 453.0, "SITETYPE": "FIRE STATION", "Department_Type": "Volunteer Department", "Department_Name": "ESSEX" }, "geometry": { "type": "Point", "coordinates": [ -73.052729461200101, 44.504885960409176 ] } },
{ "type": "Feature", "properties": { "PRIMARYADDRESS": "477 VT ROUTE 25", "TOWNNAME": "TOPSHAM", "ESN": 412.0, "SITETYPE": "FIRE STATION", "Department_Type": "Volunteer Department", "Department_Name": "TRI-VILLAGE" }, "geometry": { "type": "Point", "coordinates": [ -72.310827496791404, 44.116070916518041 ] } },
{ "type": "Feature", "properties": { "PRIMARYADDRESS": "1973 KILLINGTON RD", "TOWNNAME": "KILLINGTON", "ESN": 165.0, "SITETYPE": "FIRE STATION", "Department_Type": "Volunteer Department", "Department_Name": "KILLINGTON" }, "geometry": { "type": "Point", "coordinates": [ -72.78849153558258, 43.64501312622351 ] } },
{ "type": "Feature", "properties": { "PRIMARYADDRESS": "2745 SNAKE RD", "TOWNNAME": "NEWBURY", "ESN": 478.0, "SITETYPE": "FIRE STATION", "Department_Type": "Volunteer Department", "Department_Name": "WEST NEWBURY" }, "geometry": { "type": "Point", "coordinates": [ -72.118249032541328, 44.063954724647488 ] } },
{ "type": "Feature", "properties": { "PRIMARYADDRESS": "604 MAIN ST", "TOWNNAME": "ORWELL", "ESN": 248.0, "SITETYPE": "FIRE STATION", "Department_Type": "Volunteer Department", "Department_Name": "ORWELL" }, "geometry": { "type": "Point", "coordinates": [ -73.29175460995711, 43.803848550625354 ] } },
{ "type": "Feature", "properties": { "PRIMARYADDRESS": "575 DORSET ST", "TOWNNAME": "SOUTH BURLINGTON", "ESN": 339.0, "SITETYPE": "FIRE STATION", "Department_Type": "Career Department", "Department_Name": "SOUTH BURLINGTON" }, "geometry": { "type": "Point", "coordinates": [ -73.179469313910801, 44.454362140656421 ] } },
{ "type": "Feature", "properties": { "PRIMARYADDRESS": "34 DUCHARME DR", "TOWNNAME": "DERBY", "ESN": 246.0, "SITETYPE": "FIRE STATION", "Department_Type": "Volunteer Department", "Department_Name": "DERBY LINE" }, "geometry": { "type": "Point", "coordinates": [ -72.099170463222322, 45.004870781940653 ] } },
{ "type": "Feature", "properties": { "PRIMARYADDRESS": "107 VT ROUTE 30", "TOWNNAME": "WINHALL", "ESN": 265.0, "SITETYPE": "FIRE STATION", "Department_Type": "Volunteer Department", "Department_Name": "WINHALL" }, "geometry": { "type": "Point", "coordinates": [ -72.887174953806493, 43.143637934814016 ] } },
{ "type": "Feature", "properties": { "PRIMARYADDRESS": "140 VILLAGE RD", "TOWNNAME": "WARREN", "ESN": 270.0, "SITETYPE": "FIRE STATION", "Department_Type": "Volunteer Department", "Department_Name": "WARREN" }, "geometry": { "type": "Point", "coordinates": [ -72.892067587352429, 44.138070931460682 ] } },
{ "type": "Feature", "properties": { "PRIMARYADDRESS": "753 VT ROUTE 346", "TOWNNAME": "POWNAL", "ESN": 390.0, "SITETYPE": "FIRE STATION", "Department_Type": "Volunteer Department", "Department_Name": "POWNAL" }, "geometry": { "type": "Point", "coordinates": [ -73.240531833933204, 42.77117496168875 ] } },
{ "type": "Feature", "properties": { "PRIMARYADDRESS": "32 LOWER WELDEN ST", "TOWNNAME": "SAINT ALBANS CITY", "ESN": 219.0, "SITETYPE": "FIRE STATION", "Department_Type": "Combination", "Department_Name": "SAINT ALBANS CITY" }, "geometry": { "type": "Point", "coordinates": [ -73.087465591428241, 44.807209845094853 ] } },
{ "type": "Feature", "properties": { "PRIMARYADDRESS": "24 MCREYNOLDS RD", "TOWNNAME": "DANVILLE", "ESN": 148.0, "SITETYPE": "FIRE STATION", "Department_Type": "Volunteer Department", "Department_Name": "DANVILLE" }, "geometry": { "type": "Point", "coordinates": [ -72.099354669464546, 44.460252535401871 ] } },
{ "type": "Feature", "properties": { "PRIMARYADDRESS": "2154 MAIN ST", "TOWNNAME": "CAVENDISH", "ESN": 108.0, "SITETYPE": "FIRE STATION", "Department_Type": "Volunteer Department", "Department_Name": "CAVENDISH" }, "geometry": { "type": "Point", "coordinates": [ -72.606940471345453, 43.382376561520296 ] } },
{ "type": "Feature", "properties": { "PRIMARYADDRESS": "2646 STAGE RD", "TOWNNAME": "BENSON", "ESN": 223.0, "SITETYPE": "FIRE STATION", "Department_Type": "Volunteer Department", "Department_Name": "BENSON TOWN" }, "geometry": { "type": "Point", "coordinates": [ -73.310100661421856, 43.707305828323996 ] } },
{ "type": "Feature", "properties": { "PRIMARYADDRESS": "44 VT ROUTE 17 W", "TOWNNAME": "ADDISON", "ESN": 182.0, "SITETYPE": "FIRE STATION", "Department_Type": "Volunteer Department", "Department_Name": "ADDISON" }, "geometry": { "type": "Point", "coordinates": [ -73.303313388180825, 44.089258593585761 ] } },
{ "type": "Feature", "properties": { "PRIMARYADDRESS": "2026 POMFRET RD", "TOWNNAME": "POMFRET", "ESN": 271.0, "SITETYPE": "FIRE STATION", "Department_Type": "Volunteer Department", "Department_Name": "POMFRET" }, "geometry": { "type": "Point", "coordinates": [ -72.537997113819358, 43.665525681577805 ] } },
{ "type": "Feature", "properties": { "PRIMARYADDRESS": "7392 US ROUTE 4", "TOWNNAME": "BRIDGEWATER", "ESN": 195.0, "SITETYPE": "FIRE STATION", "Department_Type": "Volunteer Department", "Department_Name": "BRIDGEWATER" }, "geometry": { "type": "Point", "coordinates": [ -72.623116019762577, 43.587410615793637 ] } },
{ "type": "Feature", "properties": { "PRIMARYADDRESS": "4017 VT ROUTE 30", "TOWNNAME": "JAMAICA", "ESN": 260.0, "SITETYPE": "FIRE STATION", "Department_Type": "Volunteer Department", "Department_Name": "JAMAICA" }, "geometry": { "type": "Point", "coordinates": [ -72.782462263992485, 43.09880440739812 ] } },
{ "type": "Feature", "properties": { "PRIMARYADDRESS": "479 MILL ST", "TOWNNAME": "SHELDON", "ESN": 128.0, "SITETYPE": "FIRE STATION", "Department_Type": "Volunteer Department", "Department_Name": "SHELDON" }, "geometry": { "type": "Point", "coordinates": [ -72.975835704622583, 44.905701027530768 ] } },
{ "type": "Feature", "properties": { "PRIMARYADDRESS": "351 MAIN ST", "TOWNNAME": "WARREN", "ESN": 270.0, "SITETYPE": "FIRE STATION", "Department_Type": "Volunteer Department", "Department_Name": "WARREN" }, "geometry": { "type": "Point", "coordinates": [ -72.855564441546051, 44.11348280843049 ] } },
{ "type": "Feature", "properties": { "PRIMARYADDRESS": "734 MAIN ST", "TOWNNAME": "WESTON", "ESN": 349.0, "SITETYPE": "FIRE STATION", "Department_Type": "Volunteer Department", "Department_Name": "WESTON" }, "geometry": { "type": "Point", "coordinates": [ -72.789231484981102, 43.294929253573514 ] } },
{ "type": "Feature", "properties": { "PRIMARYADDRESS": "318 US ROUTE 2", "TOWNNAME": "SOUTH HERO", "ESN": 422.0, "SITETYPE": "FIRE STATION", "Department_Type": "Volunteer Department", "Department_Name": "SOUTH HERO" }, "geometry": { "type": "Point", "coordinates": [ -73.304672104814571, 44.646186110082283 ] } },
{ "type": "Feature", "properties": { "PRIMARYADDRESS": "2095 VT ROUTE 12", "TOWNNAME": "BERLIN", "ESN": 126.0, "SITETYPE": "FIRE STATION", "Department_Type": "Volunteer Department", "Department_Name": "BERLIN" }, "geometry": { "type": "Point", "coordinates": [ -72.634541133896548, 44.199906605778885 ] } },
{ "type": "Feature", "properties": { "PRIMARYADDRESS": "2399 US ROUTE 7", "TOWNNAME": "SALISBURY", "ESN": 337.0, "SITETYPE": "FIRE STATION", "Department_Type": "Volunteer Department", "Department_Name": "SALISBURY" }, "geometry": { "type": "Point", "coordinates": [ -73.110572635733917, 43.923572020027052 ] } },
{ "type": "Feature", "properties": { "PRIMARYADDRESS": "253 VT ROUTE 100", "TOWNNAME": "DOVER", "ESN": 445.0, "SITETYPE": "FIRE STATION", "Department_Type": "Volunteer Department", "Department_Name": "WEST DOVER" }, "geometry": { "type": "Point", "coordinates": [ -72.872767565262507, 42.948571829795831 ] } },
{ "type": "Feature", "properties": { "PRIMARYADDRESS": "142 MAIN ST", "TOWNNAME": "BARTON", "ESN": 504.0, "SITETYPE": "FIRE STATION", "Department_Type": "Volunteer Department", "Department_Name": "ORLEANS" }, "geometry": { "type": "Point", "coordinates": [ -72.175707607582964, 44.747423394291694 ] } },
{ "type": "Feature", "properties": { "PRIMARYADDRESS": "24 PEAVINE DR", "TOWNNAME": "ROCHESTER", "ESN": 169.0, "SITETYPE": "FIRE STATION", "Department_Type": "Volunteer Department", "Department_Name": "ROCHESTER" }, "geometry": { "type": "Point", "coordinates": [ -72.807835634842931, 43.87713532968268 ] } },
{ "type": "Feature", "properties": { "PRIMARYADDRESS": "282 ETHAN ALLEN AVE", "TOWNNAME": "COLCHESTER", "ESN": 470.0, "SITETYPE": "FIRE STATION", "Department_Type": "Volunteer Department", "Department_Name": "COLCHESTER" }, "geometry": { "type": "Point", "coordinates": [ -73.148601133213418, 44.505769283419362 ] } },
{ "type": "Feature", "properties": { "PRIMARYADDRESS": "226 WEST ST", "TOWNNAME": "DUMMERSTON", "ESN": 217.0, "SITETYPE": "FIRE STATION", "Department_Type": "Volunteer Department", "Department_Name": "WEST DUMMERSTON" }, "geometry": { "type": "Point", "coordinates": [ -72.611868796551065, 42.930003685290202 ] } },
{ "type": "Feature", "properties": { "PRIMARYADDRESS": "245 MAIN ST", "TOWNNAME": "COLCHESTER", "ESN": 320.0, "SITETYPE": "FIRE STATION", "Department_Type": "Volunteer Department", "Department_Name": "COLCHESTER" }, "geometry": { "type": "Point", "coordinates": [ -73.160766940570397, 44.548800060787926 ] } },
{ "type": "Feature", "properties": { "PRIMARYADDRESS": "324 VT ROUTE 110", "TOWNNAME": "CHELSEA", "ESN": 181.0, "SITETYPE": "FIRE STATION", "Department_Type": "Volunteer Department", "Department_Name": "CHELSEA" }, "geometry": { "type": "Point", "coordinates": [ -72.446896762310701, 43.99157578253935 ] } },
{ "type": "Feature", "properties": { "PRIMARYADDRESS": "5 MOUNTAIN VIEW RD", "TOWNNAME": "TINMOUTH", "ESN": 416.0, "SITETYPE": "FIRE STATION", "Department_Type": "Volunteer Department", "Department_Name": "TINMOUTH" }, "geometry": { "type": "Point", "coordinates": [ -73.050179841393557, 43.448449360504711 ] } },
{ "type": "Feature", "properties": { "PRIMARYADDRESS": "3132 GLOVER ST", "TOWNNAME": "GLOVER", "ESN": 144.0, "SITETYPE": "FIRE STATION", "Department_Type": "Volunteer Department", "Department_Name": "GLOVER" }, "geometry": { "type": "Point", "coordinates": [ -72.1894771270006, 44.704427247810827 ] } },
{ "type": "Feature", "properties": { "PRIMARYADDRESS": "155 VT ROUTE 133", "TOWNNAME": "PAWLET", "ESN": 379.0, "SITETYPE": "FIRE STATION", "Department_Type": "Volunteer Department", "Department_Name": "PAWLET" }, "geometry": { "type": "Point", "coordinates": [ -73.174539007780382, 43.347714627169211 ] } },
{ "type": "Feature", "properties": { "PRIMARYADDRESS": "43 S MAIN ST", "TOWNNAME": "WATERBURY", "ESN": 290.0, "SITETYPE": "FIRE STATION", "Department_Type": "Volunteer Department", "Department_Name": "WATERBURY" }, "geometry": { "type": "Point", "coordinates": [ -72.755738621516571, 44.336645448968959 ] } },
{ "type": "Feature", "properties": { "PRIMARYADDRESS": "3956 VT ROUTE 100", "TOWNNAME": "PITTSFIELD", "ESN": 424.0, "SITETYPE": "FIRE STATION", "Department_Type": "Volunteer Department", "Department_Name": "PITTSFIELD" }, "geometry": { "type": "Point", "coordinates": [ -72.812471575715804, 43.772858608084604 ] } },
{ "type": "Feature", "properties": { "PRIMARYADDRESS": "10340 VT ROUTE 116", "TOWNNAME": "HINESBURG", "ESN": 448.0, "SITETYPE": "FIRE STATION", "Department_Type": "Volunteer Department", "Department_Name": "HINESBURG" }, "geometry": { "type": "Point", "coordinates": [ -73.112237523375669, 44.333239804756559 ] } },
{ "type": "Feature", "properties": { "PRIMARYADDRESS": "18 BEAVER ST", "TOWNNAME": "WILMINGTON", "ESN": 350.0, "SITETYPE": "FIRE STATION", "Department_Type": "Combination", "Department_Name": "WILMINGTON" }, "geometry": { "type": "Point", "coordinates": [ -72.87137725362102, 42.866936809181148 ] } },
{ "type": "Feature", "properties": { "PRIMARYADDRESS": "20 WORCESTER VILLAGE RD", "TOWNNAME": "WORCESTER", "ESN": 294.0, "SITETYPE": "FIRE STATION", "Department_Type": "Volunteer Department", "Department_Name": "WORCESTER" }, "geometry": { "type": "Point", "coordinates": [ -72.550094053435217, 44.372324384324024 ] } },
{ "type": "Feature", "properties": { "PRIMARYADDRESS": "365 TEMPLETON RD", "TOWNNAME": "EAST MONTPELIER", "ESN": 373.0, "SITETYPE": "FIRE STATION", "Department_Type": "Volunteer Department", "Department_Name": "EAST MONTPELIER" }, "geometry": { "type": "Point", "coordinates": [ -72.521149515146831, 44.31571662643983 ] } },
{ "type": "Feature", "properties": { "PRIMARYADDRESS": "711 ROUTE 121 E", "TOWNNAME": "GRAFTON", "ESN": 257.0, "SITETYPE": "FIRE STATION", "Department_Type": "Volunteer Department", "Department_Name": "GRAFTON" }, "geometry": { "type": "Point", "coordinates": [ -72.596280661529505, 43.174073683276163 ] } },
{ "type": "Feature", "properties": { "PRIMARYADDRESS": "86 MOUNTAIN RD", "TOWNNAME": "MONTGOMERY", "ESN": 191.0, "SITETYPE": "FIRE STATION", "Department_Type": "Volunteer Department", "Department_Name": "MONTGOMERY" }, "geometry": { "type": "Point", "coordinates": [ -72.605708377692508, 44.87819322690472 ] } },
{ "type": "Feature", "properties": { "PRIMARYADDRESS": "217 MARBLE ST", "TOWNNAME": "WEST RUTLAND", "ESN": 348.0, "SITETYPE": "FIRE STATION", "Department_Type": "Volunteer Department", "Department_Name": "WEST RUTLAND" }, "geometry": { "type": "Point", "coordinates": [ -73.049591077790382, 43.597161772280764 ] } },
{ "type": "Feature", "properties": { "PRIMARYADDRESS": "341 VILLAGE ST", "TOWNNAME": "DORSET", "ESN": 176.0, "SITETYPE": "FIRE STATION", "Department_Type": "Volunteer Department", "Department_Name": "EAST DORSET" }, "geometry": { "type": "Point", "coordinates": [ -73.009553288582737, 43.238957593555739 ] } },
{ "type": "Feature", "properties": { "PRIMARYADDRESS": "3011 VT ROUTE 116", "TOWNNAME": "STARKSBORO", "ESN": 287.0, "SITETYPE": "FIRE STATION", "Department_Type": "Volunteer Department", "Department_Name": "STARKSBORO" }, "geometry": { "type": "Point", "coordinates": [ -73.057189198236046, 44.22789808101178 ] } },
{ "type": "Feature", "properties": { "PRIMARYADDRESS": "184 OLD MILL RD", "TOWNNAME": "ARLINGTON", "ESN": 127.0, "SITETYPE": "FIRE STATION", "Department_Type": "Volunteer Department", "Department_Name": "ARLINGTON" }, "geometry": { "type": "Point", "coordinates": [ -73.141963065815787, 43.060374777144268 ] } },
{ "type": "Feature", "properties": { "PRIMARYADDRESS": "473 SHADY RILL RD", "TOWNNAME": "MIDDLESEX", "ESN": 293.0, "SITETYPE": "FIRE STATION", "Department_Type": "Volunteer Department", "Department_Name": "MIDDLESEX" }, "geometry": { "type": "Point", "coordinates": [ -72.606087959296033, 44.350507187553298 ] } },
{ "type": "Feature", "properties": { "PRIMARYADDRESS": "144 TOWN GARAGE RD", "TOWNNAME": "CHESTER", "ESN": 153.0, "SITETYPE": "FIRE STATION", "Department_Type": "Volunteer Department", "Department_Name": "CHESTER" }, "geometry": { "type": "Point", "coordinates": [ -72.588463978163389, 43.266064851458594 ] } },
{ "type": "Feature", "properties": { "PRIMARYADDRESS": "249 VT ROUTE 114 S", "TOWNNAME": "NORTON", "ESN": 142.0, "SITETYPE": "FIRE STATION", "Department_Type": "Volunteer Department", "Department_Name": "BEECHER FALLS" }, "geometry": { "type": "Point", "coordinates": [ -71.797748088074769, 45.005783707514141 ] } },
{ "type": "Feature", "properties": { "PRIMARYADDRESS": "35 CAMBRIDGE RD", "TOWNNAME": "WESTFORD", "ESN": 556.0, "SITETYPE": "FIRE STATION", "Department_Type": "Volunteer Department", "Department_Name": "WESTFORD" }, "geometry": { "type": "Point", "coordinates": [ -73.005777437160333, 44.612080940199952 ] } },
{ "type": "Feature", "properties": { "PRIMARYADDRESS": "57 WITHERSPOON RD", "TOWNNAME": "RYEGATE", "ESN": 139.0, "SITETYPE": "FIRE STATION", "Department_Type": "Volunteer Department", "Department_Name": "RYEGATE" }, "geometry": { "type": "Point", "coordinates": [ -72.104778430623099, 44.208102211815273 ] } },
{ "type": "Feature", "properties": { "PRIMARYADDRESS": "50 GREEN ST", "TOWNNAME": "VERGENNES", "ESN": 344.0, "SITETYPE": "FIRE STATION", "Department_Type": "Volunteer Department", "Department_Name": "VERGENNES" }, "geometry": { "type": "Point", "coordinates": [ -73.251373222259673, 44.166614580055267 ] } },
{ "type": "Feature", "properties": { "PRIMARYADDRESS": "135 CARSON LN", "TOWNNAME": "BRADFORD", "ESN": 308.0, "SITETYPE": "FIRE STATION", "Department_Type": "Volunteer Department", "Department_Name": "BRADFORD" }, "geometry": { "type": "Point", "coordinates": [ -72.121085999423698, 43.989330556383194 ] } },
{ "type": "Feature", "properties": { "PRIMARYADDRESS": "15 GOODALL ST", "TOWNNAME": "FAIRFAX", "ESN": 398.0, "SITETYPE": "FIRE STATION", "Department_Type": "Volunteer Department", "Department_Name": "FAIRFAX" }, "geometry": { "type": "Point", "coordinates": [ -73.016534457080539, 44.669830388675507 ] } },
{ "type": "Feature", "properties": { "PRIMARYADDRESS": "75 S MAIN ST", "TOWNNAME": "WHITING", "ESN": 284.0, "SITETYPE": "FIRE STATION", "Department_Type": "Volunteer Department", "Department_Name": "WHITING" }, "geometry": { "type": "Point", "coordinates": [ -73.201549027461567, 43.859058727199866 ] } },
{ "type": "Feature", "properties": { "PRIMARYADDRESS": "4 MONARCH HILL RD", "TOWNNAME": "TUNBRIDGE", "ESN": 343.0, "SITETYPE": "FIRE STATION", "Department_Type": "Volunteer Department", "Department_Name": "TUNBRIDGE" }, "geometry": { "type": "Point", "coordinates": [ -72.48722828937764, 43.899959404299878 ] } },
{ "type": "Feature", "properties": { "PRIMARYADDRESS": "169 MAIN ST", "TOWNNAME": "PLAINFIELD", "ESN": 194.0, "SITETYPE": "FIRE STATION", "Department_Type": "Volunteer Department", "Department_Name": "PLAINFIELD" }, "geometry": { "type": "Point", "coordinates": [ -72.422431904194809, 44.277879582089419 ] } },
{ "type": "Feature", "properties": { "PRIMARYADDRESS": "4134 ETHAN ALLEN HWY", "TOWNNAME": "GEORGIA", "ESN": 189.0, "SITETYPE": "FIRE STATION", "Department_Type": "Volunteer Department", "Department_Name": "GEORGIA" }, "geometry": { "type": "Point", "coordinates": [ -73.116420420324744, 44.731027497271711 ] } },
{ "type": "Feature", "properties": { "PRIMARYADDRESS": "1391 NORTH AVE", "TOWNNAME": "BURLINGTON", "ESN": 355.0, "SITETYPE": "FIRE STATION", "Department_Type": "Career Department", "Department_Name": "BURLINGTON" }, "geometry": { "type": "Point", "coordinates": [ -73.252367876602193, 44.512106911514373 ] } },
{ "type": "Feature", "properties": { "PRIMARYADDRESS": "316 MAIN ST", "TOWNNAME": "LYNDON", "ESN": 302.0, "SITETYPE": "FIRE STATION", "Department_Type": "Volunteer Department", "Department_Name": "LYNDONVILLE" }, "geometry": { "type": "Point", "coordinates": [ -72.002631063012245, 44.538099137872848 ] } },
{ "type": "Feature", "properties": { "PRIMARYADDRESS": "397 JERUSALEM RD", "TOWNNAME": "STARKSBORO", "ESN": 287.0, "SITETYPE": "FIRE STATION", "Department_Type": "Volunteer Department", "Department_Name": "STARKSBORO" }, "geometry": { "type": "Point", "coordinates": [ -72.984986693205443, 44.169602753692168 ] } },
{ "type": "Feature", "properties": { "PRIMARYADDRESS": "322 US ROUTE 2", "TOWNNAME": "SOUTH HERO", "ESN": 422.0, "SITETYPE": "FIRE STATION", "Department_Type": "Volunteer Department", "Department_Name": "SOUTH HERO" }, "geometry": { "type": "Point", "coordinates": [ -73.30505519412047, 44.645856336179513 ] } },
{ "type": "Feature", "properties": { "PRIMARYADDRESS": "2 CENTRAL ST", "TOWNNAME": "RANDOLPH", "ESN": 411.0, "SITETYPE": "FIRE STATION", "Department_Type": "Volunteer Department", "Department_Name": "RANDOLPH VILLAGE" }, "geometry": { "type": "Point", "coordinates": [ -72.665810864067694, 43.927781067857637 ] } },
{ "type": "Feature", "properties": { "PRIMARYADDRESS": "24 DOVER RD", "TOWNNAME": "NEWFANE", "ESN": 275.0, "SITETYPE": "FIRE STATION", "Department_Type": "Volunteer Department", "Department_Name": "NEWBROOK" }, "geometry": { "type": "Point", "coordinates": [ -72.677781309093561, 42.947167542257588 ] } },
{ "type": "Feature", "properties": { "PRIMARYADDRESS": "350 WESTERN AVE", "TOWNNAME": "NEWPORT CITY", "ESN": 303.0, "SITETYPE": "FIRE STATION", "Department_Type": "Volunteer Department", "Department_Name": "NEWPORT CITY" }, "geometry": { "type": "Point", "coordinates": [ -72.19804279178868, 44.939329614812969 ] } },
{ "type": "Feature", "properties": { "PRIMARYADDRESS": "151 BIMSON DR", "TOWNNAME": "BARNET", "ESN": 421.0, "SITETYPE": "FIRE STATION", "Department_Type": "Volunteer Department", "Department_Name": "BARNET" }, "geometry": { "type": "Point", "coordinates": [ -72.058860434367347, 44.292841261203876 ] } },
{ "type": "Feature", "properties": { "PRIMARYADDRESS": "7492 US ROUTE 2", "TOWNNAME": "NORTH HERO", "ESN": 236.0, "SITETYPE": "FIRE STATION", "Department_Type": "Volunteer Department", "Department_Name": "NORTH HERO" }, "geometry": { "type": "Point", "coordinates": [ -73.262896461629893, 44.863758768055959 ] } },
{ "type": "Feature", "properties": { "PRIMARYADDRESS": "162 UPPER MAIN ST", "TOWNNAME": "MORRISTOWN", "ESN": 115.0, "SITETYPE": "FIRE STATION", "Department_Type": "Volunteer Department", "Department_Name": "MORRISVILLE" }, "geometry": { "type": "Point", "coordinates": [ -72.595124464097736, 44.561462495439407 ] } },
{ "type": "Feature", "properties": { "PRIMARYADDRESS": "9111 VT ROUTE 113", "TOWNNAME": "VERSHIRE", "ESN": 345.0, "SITETYPE": "FIRE STATION", "Department_Type": "Volunteer Department", "Department_Name": "VERSHIRE" }, "geometry": { "type": "Point", "coordinates": [ -72.363309305039252, 43.981719142684163 ] } },
{ "type": "Feature", "properties": { "PRIMARYADDRESS": "17 HYDE RD", "TOWNNAME": "GRAND ISLE", "ESN": 423.0, "SITETYPE": "FIRE STATION", "Department_Type": "Volunteer Department", "Department_Name": "GRAND ISLE" }, "geometry": { "type": "Point", "coordinates": [ -73.297183824234338, 44.721904761221694 ] } },
{ "type": "Feature", "properties": { "PRIMARYADDRESS": "276 ORCHARD RD", "TOWNNAME": "BENNINGTON", "ESN": 401.0, "SITETYPE": "FIRE STATION", "Department_Type": "Volunteer Department", "Department_Name": "BENNINGTON RURAL" }, "geometry": { "type": "Point", "coordinates": [ -73.202878857250099, 42.899923838593615 ] } },
{ "type": "Feature", "properties": { "PRIMARYADDRESS": "51 JAY PEAK RD", "TOWNNAME": "JAY", "ESN": 150.0, "SITETYPE": "FIRE STATION", "Department_Type": "Volunteer Department", "Department_Name": "JAY" }, "geometry": { "type": "Point", "coordinates": [ -72.496889644365581, 44.930832081764997 ] } },
{ "type": "Feature", "properties": { "PRIMARYADDRESS": "5 BRAZERS WAY", "TOWNNAME": "STRATTON", "ESN": 563.0, "SITETYPE": "FIRE STATION", "Department_Type": "Volunteer Department", "Department_Name": "STRATTON MOUNTAIN" }, "geometry": { "type": "Point", "coordinates": [ -72.889024073637842, 43.10599391498841 ] } },
{ "type": "Feature", "properties": { "PRIMARYADDRESS": "291 W MAIN ST", "TOWNNAME": "LUNENBURG", "ESN": 425.0, "SITETYPE": "FIRE STATION", "Department_Type": "Volunteer Department", "Department_Name": "LUNENBURG" }, "geometry": { "type": "Point", "coordinates": [ -71.693317518785008, 44.461270696605858 ] } },
{ "type": "Feature", "properties": { "PRIMARYADDRESS": "59 NORTH RD", "TOWNNAME": "WEST HAVEN", "ESN": 161.0, "SITETYPE": "FIRE STATION", "Department_Type": "Volunteer Department", "Department_Name": "WEST HAVEN" }, "geometry": { "type": "Point", "coordinates": [ -73.346940862825107, 43.652227394176499 ] } },
{ "type": "Feature", "properties": { "PRIMARYADDRESS": "5712 WILLOUGHBY LAKE RD", "TOWNNAME": "WESTMORE", "ESN": 457.0, "SITETYPE": "FIRE STATION", "Department_Type": "Volunteer Department", "Department_Name": "WESTMORE" }, "geometry": { "type": "Point", "coordinates": [ -72.080445273892877, 44.78050964356089 ] } },
{ "type": "Feature", "properties": { "PRIMARYADDRESS": "1252 VT ROUTE 253", "TOWNNAME": "CANAAN", "ESN": 455.0, "SITETYPE": "FIRE STATION", "Department_Type": "Volunteer Department", "Department_Name": "BEECHER FALLS" }, "geometry": { "type": "Point", "coordinates": [ -71.504908830210468, 45.010242887848925 ] } },
{ "type": "Feature", "properties": { "PRIMARYADDRESS": "428 LAKE RD", "TOWNNAME": "SAINT ALBANS TOWN", "ESN": 218.0, "SITETYPE": "FIRE STATION", "Department_Type": "Volunteer Department", "Department_Name": "SAINT ALBANS TOWN" }, "geometry": { "type": "Point", "coordinates": [ -73.113236111208536, 44.811948699457851 ] } },
{ "type": "Feature", "properties": { "PRIMARYADDRESS": "152 VT ROUTE 14 S", "TOWNNAME": "RANDOLPH", "ESN": 408.0, "SITETYPE": "FIRE STATION", "Department_Type": "Volunteer Department", "Department_Name": "EAST RANDOLPH" }, "geometry": { "type": "Point", "coordinates": [ -72.55352956138158, 43.938143248286622 ] } },
{ "type": "Feature", "properties": { "PRIMARYADDRESS": "3909 US ROUTE 7", "TOWNNAME": "FERRISBURGH", "ESN": 285.0, "SITETYPE": "FIRE STATION", "Department_Type": "Volunteer Department", "Department_Name": "FERRISBURGH" }, "geometry": { "type": "Point", "coordinates": [ -73.24270390104715, 44.216684745749887 ] } },
{ "type": "Feature", "properties": { "PRIMARYADDRESS": "1688 VT ROUTE 106", "TOWNNAME": "READING", "ESN": 197.0, "SITETYPE": "FIRE STATION", "Department_Type": "Volunteer Department", "Department_Name": "READING" }, "geometry": { "type": "Point", "coordinates": [ -72.532216745537127, 43.46794016393028 ] } },
{ "type": "Feature", "properties": { "PRIMARYADDRESS": "3107 THEODORE ROOSEVELT HWY", "TOWNNAME": "BOLTON", "ESN": 307.0, "SITETYPE": "FIRE STATION", "Department_Type": "Volunteer Department", "Department_Name": "BOLTON" }, "geometry": { "type": "Point", "coordinates": [ -72.885052128504086, 44.373464737404056 ] } },
{ "type": "Feature", "properties": { "PRIMARYADDRESS": "5445 LAKE MOREY RD", "TOWNNAME": "FAIRLEE", "ESN": 180.0, "SITETYPE": "FIRE STATION", "Department_Type": "Volunteer Department", "Department_Name": "FAIRLEE" }, "geometry": { "type": "Point", "coordinates": [ -72.152090540309459, 43.906403526906075 ] } },
{ "type": "Feature", "properties": { "PRIMARYADDRESS": "21 CARL SNYDER DR", "TOWNNAME": "PUTNEY", "ESN": 333.0, "SITETYPE": "FIRE STATION", "Department_Type": "Volunteer Department", "Department_Name": "PUTNEY" }, "geometry": { "type": "Point", "coordinates": [ -72.52307287690752, 42.966447030514139 ] } },
{ "type": "Feature", "properties": { "PRIMARYADDRESS": "382 VT ROUTE 244", "TOWNNAME": "THETFORD", "ESN": 342.0, "SITETYPE": "FIRE STATION", "Department_Type": "Volunteer Department", "Department_Name": "THETFORD" }, "geometry": { "type": "Point", "coordinates": [ -72.253494103011946, 43.886880942946263 ] } },
{ "type": "Feature", "properties": { "PRIMARYADDRESS": "1049 VT ROUTE 100B", "TOWNNAME": "MORETOWN", "ESN": 368.0, "SITETYPE": "FIRE STATION", "Department_Type": "Volunteer Department", "Department_Name": "MORETOWN" }, "geometry": { "type": "Point", "coordinates": [ -72.762060392647996, 44.249347290365122 ] } },
{ "type": "Feature", "properties": { "PRIMARYADDRESS": "24 POWDER SPRING RD", "TOWNNAME": "TOPSHAM", "ESN": 412.0, "SITETYPE": "FIRE STATION", "Department_Type": "Volunteer Department", "Department_Name": "TRI-VILLAGE" }, "geometry": { "type": "Point", "coordinates": [ -72.236657847394071, 44.122389832991551 ] } },
{ "type": "Feature", "properties": { "PRIMARYADDRESS": "20 MANSFIELD AVE", "TOWNNAME": "BURLINGTON", "ESN": 355.0, "SITETYPE": "FIRE STATION", "Department_Type": "Career Department", "Department_Name": "BURLINGTON" }, "geometry": { "type": "Point", "coordinates": [ -73.198435096147819, 44.481348665703258 ] } },
{ "type": "Feature", "properties": { "PRIMARYADDRESS": "52 CHURCH ST", "TOWNNAME": "MOUNT HOLLY", "ESN": 377.0, "SITETYPE": "FIRE STATION", "Department_Type": "Volunteer Department", "Department_Name": "MOUNT HOLLY" }, "geometry": { "type": "Point", "coordinates": [ -72.820123000172828, 43.414441336251876 ] } },
{ "type": "Feature", "properties": { "PRIMARYADDRESS": "160 RAILROAD ST", "TOWNNAME": "TROY", "ESN": 433.0, "SITETYPE": "FIRE STATION", "Department_Type": "Volunteer Department", "Department_Name": "NORTH TROY" }, "geometry": { "type": "Point", "coordinates": [ -72.405323019328279, 44.997651478633671 ] } },
{ "type": "Feature", "properties": { "PRIMARYADDRESS": "3852 RIVER RD", "TOWNNAME": "KILLINGTON", "ESN": 165.0, "SITETYPE": "FIRE STATION", "Department_Type": "Volunteer Department", "Department_Name": "KILLINGTON" }, "geometry": { "type": "Point", "coordinates": [ -72.773252619668938, 43.660032947654791 ] } },
{ "type": "Feature", "properties": { "PRIMARYADDRESS": "17 RAILROAD ST", "TOWNNAME": "WALLINGFORD", "ESN": 375.0, "SITETYPE": "FIRE STATION", "Department_Type": "Volunteer Department", "Department_Name": "WALLINGFORD" }, "geometry": { "type": "Point", "coordinates": [ -72.97966132523716, 43.472211117624788 ] } },
{ "type": "Feature", "properties": { "PRIMARYADDRESS": "5948 BERKSHIRE CENTER RD", "TOWNNAME": "BERKSHIRE", "ESN": 184.0, "SITETYPE": "FIRE STATION", "Department_Type": "Volunteer Department", "Department_Name": "BERKSHIRE" }, "geometry": { "type": "Point", "coordinates": [ -72.727605133077802, 44.935226839963498 ] } },
{ "type": "Feature", "properties": { "PRIMARYADDRESS": "343 BEACH RD", "TOWNNAME": "ELMORE", "ESN": 103.0, "SITETYPE": "FIRE STATION", "Department_Type": "Volunteer Department", "Department_Name": "ELMORE" }, "geometry": { "type": "Point", "coordinates": [ -72.531172418301423, 44.540258196348269 ] } },
{ "type": "Feature", "properties": { "PRIMARYADDRESS": "1456 SCOTT HWY", "TOWNNAME": "GROTON", "ESN": 389.0, "SITETYPE": "FIRE STATION", "Department_Type": "Volunteer Department", "Department_Name": "GROTON" }, "geometry": { "type": "Point", "coordinates": [ -72.196950229081409, 44.211625203341725 ] } },
{ "type": "Feature", "properties": { "PRIMARYADDRESS": "47 BOMBARDIER RD", "TOWNNAME": "MILTON", "ESN": 358.0, "SITETYPE": "FIRE STATION", "Department_Type": "Volunteer Department", "Department_Name": "MILTON" }, "geometry": { "type": "Point", "coordinates": [ -73.123154762196478, 44.61876927062054 ] } },
{ "type": "Feature", "properties": { "PRIMARYADDRESS": "102 RAILROAD ST", "TOWNNAME": "BRIGHTON", "ESN": 319.0, "SITETYPE": "FIRE STATION", "Department_Type": "Volunteer Department", "Department_Name": "BRIGHTON" }, "geometry": { "type": "Point", "coordinates": [ -71.883367904571685, 44.81572007079167 ] } },
{ "type": "Feature", "properties": { "PRIMARYADDRESS": "645 TALCOTT RD", "TOWNNAME": "WILLISTON", "ESN": 449.0, "SITETYPE": "FIRE STATION", "Department_Type": "Career Department", "Department_Name": "WILLISTON" }, "geometry": { "type": "Point", "coordinates": [ -73.100004392773513, 44.444896128737327 ] } },
{ "type": "Feature", "properties": { "PRIMARYADDRESS": "833 MAIN ST", "TOWNNAME": "ALBANY", "ESN": 427.0, "SITETYPE": "FIRE STATION", "Department_Type": "Volunteer Department", "Department_Name": "ALBANY" }, "geometry": { "type": "Point", "coordinates": [ -72.379349992338803, 44.731002832487789 ] } },
{ "type": "Feature", "properties": { "PRIMARYADDRESS": "37 MAIN ST", "TOWNNAME": "PROCTOR", "ESN": 381.0, "SITETYPE": "FIRE STATION", "Department_Type": "Volunteer Department", "Department_Name": "PROCTOR" }, "geometry": { "type": "Point", "coordinates": [ -73.035954225919227, 43.661358169313466 ] } },
{ "type": "Feature", "properties": { "PRIMARYADDRESS": "1049 EAST WEST RD", "TOWNNAME": "DUMMERSTON", "ESN": 217.0, "SITETYPE": "FIRE STATION", "Department_Type": "Volunteer Department", "Department_Name": "WEST DUMMERSTON" }, "geometry": { "type": "Point", "coordinates": [ -72.57273214040319, 42.936703830265898 ] } },
{ "type": "Feature", "properties": { "PRIMARYADDRESS": "2872 N POWNAL RD", "TOWNNAME": "POWNAL", "ESN": 390.0, "SITETYPE": "FIRE STATION", "Department_Type": "Volunteer Department", "Department_Name": "POWNAL" }, "geometry": { "type": "Point", "coordinates": [ -73.222824749551009, 42.795501417095835 ] } },
{ "type": "Feature", "properties": { "PRIMARYADDRESS": "2854 S STREAM RD", "TOWNNAME": "POWNAL", "ESN": 390.0, "SITETYPE": "FIRE STATION", "Department_Type": "Volunteer Department", "Department_Name": "POWNAL" }, "geometry": { "type": "Point", "coordinates": [ -73.167134534081299, 42.832014528598926 ] } },
{ "type": "Feature", "properties": { "PRIMARYADDRESS": "420 VT ROUTE 15", "TOWNNAME": "UNDERHILL", "ESN": 361.0, "SITETYPE": "FIRE STATION", "Department_Type": "Volunteer Department", "Department_Name": "UNDERHILL-JERICHO" }, "geometry": { "type": "Point", "coordinates": [ -72.94433991019217, 44.527577133274399 ] } },
{ "type": "Feature", "properties": { "PRIMARYADDRESS": "82 CROWN POINT RD", "TOWNNAME": "BRIDPORT", "ESN": 407.0, "SITETYPE": "FIRE STATION", "Department_Type": "Volunteer Department", "Department_Name": "BRIDPORT" }, "geometry": { "type": "Point", "coordinates": [ -73.315342509022742, 43.984468964891086 ] } },
{ "type": "Feature", "properties": { "PRIMARYADDRESS": "227 CLAY POINT RD", "TOWNNAME": "COLCHESTER", "ESN": 320.0, "SITETYPE": "FIRE STATION", "Department_Type": "Volunteer Department", "Department_Name": "COLCHESTER" }, "geometry": { "type": "Point", "coordinates": [ -73.201054535755901, 44.597753157008654 ] } },
{ "type": "Feature", "properties": { "PRIMARYADDRESS": "333 WOLCOTT ST", "TOWNNAME": "HARDWICK", "ESN": 146.0, "SITETYPE": "FIRE STATION", "Department_Type": "Volunteer Department", "Department_Name": "HARDWICK" }, "geometry": { "type": "Point", "coordinates": [ -72.371869717305174, 44.507876262656659 ] } },
{ "type": "Feature", "properties": { "PRIMARYADDRESS": "1126 VT ROUTE 30", "TOWNNAME": "WELLS", "ESN": 297.0, "SITETYPE": "FIRE STATION", "Department_Type": "Volunteer Department", "Department_Name": "WELLS" }, "geometry": { "type": "Point", "coordinates": [ -73.210844132107326, 43.416823191571879 ] } },
{ "type": "Feature", "properties": { "PRIMARYADDRESS": "122 SCHOOL ST", "TOWNNAME": "READSBORO", "ESN": 258.0, "SITETYPE": "FIRE STATION", "Department_Type": "Volunteer Department", "Department_Name": "READSBORO" }, "geometry": { "type": "Point", "coordinates": [ -72.947817873855854, 42.770996429025026 ] } },
{ "type": "Feature", "properties": { "PRIMARYADDRESS": "338 PAINE TPKE N", "TOWNNAME": "BERLIN", "ESN": 125.0, "SITETYPE": "FIRE STATION", "Department_Type": "Volunteer Department", "Department_Name": "BERLIN" }, "geometry": { "type": "Point", "coordinates": [ -72.573495154510951, 44.214460481911878 ] } },
{ "type": "Feature", "properties": { "PRIMARYADDRESS": "157 REVOIR FLAT RD", "TOWNNAME": "JAY", "ESN": 150.0, "SITETYPE": "FIRE STATION", "Department_Type": "Volunteer Department", "Department_Name": "JAY" }, "geometry": { "type": "Point", "coordinates": [ -72.436166069485921, 44.951627295421467 ] } },
{ "type": "Feature", "properties": { "PRIMARYADDRESS": "2659 VT ROUTE 133", "TOWNNAME": "IRA", "ESN": 221.0, "SITETYPE": "FIRE STATION", "Department_Type": "Volunteer Department", "Department_Name": "IRA" }, "geometry": { "type": "Point", "coordinates": [ -73.070432124140297, 43.524168001853106 ] } },
{ "type": "Feature", "properties": { "PRIMARYADDRESS": "5 SEYMOUR ST", "TOWNNAME": "MIDDLEBURY", "ESN": 283.0, "SITETYPE": "FIRE STATION", "Department_Type": "Volunteer Department", "Department_Name": "MIDDLEBURY" }, "geometry": { "type": "Point", "coordinates": [ -73.1684031877857, 44.015402801899796 ] } },
{ "type": "Feature", "properties": { "PRIMARYADDRESS": "16 SOUTH ST", "TOWNNAME": "BRATTLEBORO", "ESN": 354.0, "SITETYPE": "FIRE STATION", "Department_Type": "Career Department", "Department_Name": "BRATTLEBORO" }, "geometry": { "type": "Point", "coordinates": [ -72.600071674220118, 42.852792167694204 ] } },
{ "type": "Feature", "properties": { "PRIMARYADDRESS": "55 WELCH PARK DR", "TOWNNAME": "MIDDLESEX", "ESN": 293.0, "SITETYPE": "FIRE STATION", "Department_Type": "Volunteer Department", "Department_Name": "MIDDLESEX" }, "geometry": { "type": "Point", "coordinates": [ -72.694440661841881, 44.299367197656089 ] } },
{ "type": "Feature", "properties": { "PRIMARYADDRESS": "152 PLEASANT ST", "TOWNNAME": "PITTSFORD", "ESN": 163.0, "SITETYPE": "FIRE STATION", "Department_Type": "Volunteer Department", "Department_Name": "PITTSFORD" }, "geometry": { "type": "Point", "coordinates": [ -73.02042804945799, 43.704671067379209 ] } },
{ "type": "Feature", "properties": { "PRIMARYADDRESS": "41 BERWAL RD", "TOWNNAME": "ARLINGTON", "ESN": 127.0, "SITETYPE": "FIRE STATION", "Department_Type": "Volunteer Department", "Department_Name": "ARLINGTON" }, "geometry": { "type": "Point", "coordinates": [ -73.207941262127932, 43.102179899726835 ] } },
{ "type": "Feature", "properties": { "PRIMARYADDRESS": "1333 US ROUTE 2", "TOWNNAME": "MARSHFIELD", "ESN": 249.0, "SITETYPE": "FIRE STATION", "Department_Type": "Volunteer Department", "Department_Name": "MARSHFIELD" }, "geometry": { "type": "Point", "coordinates": [ -72.346432142947251, 44.351549453956281 ] } },
{ "type": "Feature", "properties": { "PRIMARYADDRESS": "765 BREEZY AVE", "TOWNNAME": "GREENSBORO", "ESN": 420.0, "SITETYPE": "FIRE STATION", "Department_Type": "Volunteer Department", "Department_Name": "GREENSBORO" }, "geometry": { "type": "Point", "coordinates": [ -72.304983890246532, 44.566682187776607 ] } },
{ "type": "Feature", "properties": { "PRIMARYADDRESS": "2842 FORT BRIDGMAN RD", "TOWNNAME": "VERNON", "ESN": 397.0, "SITETYPE": "FIRE STATION", "Department_Type": "Volunteer Department", "Department_Name": "VERNON" }, "geometry": { "type": "Point", "coordinates": [ -72.503018753499759, 42.761164854913488 ] } },
{ "type": "Feature", "properties": { "PRIMARYADDRESS": "56 FIRE DEPT LN", "TOWNNAME": "BROOKFIELD", "ESN": 591.0, "SITETYPE": "FIRE STATION", "Department_Type": "Volunteer Department", "Department_Name": "BROOKFIELD" }, "geometry": { "type": "Point", "coordinates": [ -72.571658061279393, 44.02903470454298 ] } },
{ "type": "Feature", "properties": { "PRIMARYADDRESS": "117 NORTH RD", "TOWNNAME": "BARNARD", "ESN": 363.0, "SITETYPE": "FIRE STATION", "Department_Type": "Volunteer Department", "Department_Name": "BARNARD" }, "geometry": { "type": "Point", "coordinates": [ -72.618256167420725, 43.730566901646476 ] } },
{ "type": "Feature", "properties": { "PRIMARYADDRESS": "144 CROSS RD", "TOWNNAME": "NEWPORT TOWN", "ESN": 414.0, "SITETYPE": "FIRE STATION", "Department_Type": "Volunteer Department", "Department_Name": "NEWPORT CENTER" }, "geometry": { "type": "Point", "coordinates": [ -72.308921433726155, 44.949551170247418 ] } },
{ "type": "Feature", "properties": { "PRIMARYADDRESS": "691 BURKE RD", "TOWNNAME": "SUTTON", "ESN": 341.0, "SITETYPE": "FIRE STATION", "Department_Type": "Volunteer Department", "Department_Name": "SUTTON" }, "geometry": { "type": "Point", "coordinates": [ -72.012469846357817, 44.631529374744098 ] } },
{ "type": "Feature", "properties": { "PRIMARYADDRESS": "41 TREATMENT PLANT RD", "TOWNNAME": "LUNENBURG", "ESN": 425.0, "SITETYPE": "FIRE STATION", "Department_Type": "Volunteer Department", "Department_Name": "LUNENBURG" }, "geometry": { "type": "Point", "coordinates": [ -71.718524856782494, 44.412506615210354 ] } },
{ "type": "Feature", "properties": { "PRIMARYADDRESS": "49 MAIN ST", "TOWNNAME": "WARDSBORO", "ESN": 346.0, "SITETYPE": "FIRE STATION", "Department_Type": "Volunteer Department", "Department_Name": "WARDSBORO" }, "geometry": { "type": "Point", "coordinates": [ -72.790332988346478, 43.041218391356061 ] } },
{ "type": "Feature", "properties": { "PRIMARYADDRESS": "108 GUILFORD CENTER RD", "TOWNNAME": "GUILFORD", "ESN": 289.0, "SITETYPE": "FIRE STATION", "Department_Type": "Combination", "Department_Name": "GUILFORD" }, "geometry": { "type": "Point", "coordinates": [ -72.576934436830697, 42.816803537208195 ] } },
{ "type": "Feature", "properties": { "PRIMARYADDRESS": "364 OLD DEPOT RD", "TOWNNAME": "SHAFTSBURY", "ESN": 178.0, "SITETYPE": "FIRE STATION", "Department_Type": "Volunteer Department", "Department_Name": "SHAFTSBURY" }, "geometry": { "type": "Point", "coordinates": [ -73.189858813390913, 43.010720392924085 ] } },
{ "type": "Feature", "properties": { "PRIMARYADDRESS": "800 KILLINGTON RD", "TOWNNAME": "KILLINGTON", "ESN": 165.0, "SITETYPE": "FIRE STATION", "Department_Type": "Volunteer Department", "Department_Name": "KILLINGTON" }, "geometry": { "type": "Point", "coordinates": [ -72.794554939248769, 43.658444497443 ] } },
{ "type": "Feature", "properties": { "PRIMARYADDRESS": "3 HOLMES RD", "TOWNNAME": "SOUTH BURLINGTON", "ESN": 339.0, "SITETYPE": "FIRE STATION", "Department_Type": "Career Department", "Department_Name": "SOUTH BURLINGTON" }, "geometry": { "type": "Point", "coordinates": [ -73.212412632209308, 44.433471934858105 ] } },
{ "type": "Feature", "properties": { "PRIMARYADDRESS": "170 FERRY RD", "TOWNNAME": "CHARLOTTE", "ESN": 116.0, "SITETYPE": "FIRE STATION", "Department_Type": "Volunteer Department", "Department_Name": "CHARLOTTE" }, "geometry": { "type": "Point", "coordinates": [ -73.250552115005831, 44.311188727975427 ] } },
{ "type": "Feature", "properties": { "PRIMARYADDRESS": "2829 VT ROUTE 113", "TOWNNAME": "THETFORD", "ESN": 342.0, "SITETYPE": "FIRE STATION", "Department_Type": "Volunteer Department", "Department_Name": "THETFORD" }, "geometry": { "type": "Point", "coordinates": [ -72.233916937072337, 43.82109507446647 ] } },
{ "type": "Feature", "properties": { "PRIMARYADDRESS": "158 MAPLE ST", "TOWNNAME": "WATERBURY", "ESN": 290.0, "SITETYPE": "FIRE STATION", "Department_Type": "Volunteer Department", "Department_Name": "WATERBURY" }, "geometry": { "type": "Point", "coordinates": [ -72.716192940226406, 44.377541565226444 ] } },
{ "type": "Feature", "properties": { "PRIMARYADDRESS": "2964 VT ROUTE 100", "TOWNNAME": "WHITINGHAM", "ESN": 392.0, "SITETYPE": "FIRE STATION", "Department_Type": "Volunteer Department", "Department_Name": "WHITINGHAM" }, "geometry": { "type": "Point", "coordinates": [ -72.822863217659176, 42.798183738609225 ] } },
{ "type": "Feature", "properties": { "PRIMARYADDRESS": "195 VT ROUTE 114", "TOWNNAME": "BURKE", "ESN": 435.0, "SITETYPE": "FIRE STATION", "Department_Type": "Volunteer Department", "Department_Name": "EAST BURKE" }, "geometry": { "type": "Point", "coordinates": [ -71.948075365066614, 44.585340016018442 ] } },
{ "type": "Feature", "properties": { "PRIMARYADDRESS": "253 VT ROUTE 346", "TOWNNAME": "POWNAL", "ESN": 390.0, "SITETYPE": "FIRE STATION", "Department_Type": "Volunteer Department", "Department_Name": "POWNAL" }, "geometry": { "type": "Point", "coordinates": [ -73.236074720821364, 42.765037157872392 ] } },
{ "type": "Feature", "properties": { "PRIMARYADDRESS": "296 PEACHAM RD", "TOWNNAME": "DANVILLE", "ESN": 148.0, "SITETYPE": "FIRE STATION", "Department_Type": "Volunteer Department", "Department_Name": "DANVILLE" }, "geometry": { "type": "Point", "coordinates": [ -72.141289051023534, 44.407619812899433 ] } },
{ "type": "Feature", "properties": { "PRIMARYADDRESS": "1407 COOKEVILLE RD", "TOWNNAME": "CORINTH", "ESN": 301.0, "SITETYPE": "FIRE STATION", "Department_Type": "Volunteer Department", "Department_Name": "EAST CORINTH" }, "geometry": { "type": "Point", "coordinates": [ -72.290464259675602, 44.02393704683309 ] } },
{ "type": "Feature", "properties": { "PRIMARYADDRESS": "889 VT ROUTE 44", "TOWNNAME": "WEST WINDSOR", "ESN": 154.0, "SITETYPE": "FIRE STATION", "Department_Type": "Volunteer Department", "Department_Name": "WEST WINDSOR" }, "geometry": { "type": "Point", "coordinates": [ -72.469842127103192, 43.467385541741947 ] } },
{ "type": "Feature", "properties": { "PRIMARYADDRESS": "131 WILLARD RD", "TOWNNAME": "HARTFORD", "ESN": 326.0, "SITETYPE": "FIRE STATION", "Department_Type": "Career Department", "Department_Name": "HARTFORD" }, "geometry": { "type": "Point", "coordinates": [ -72.421258161065197, 43.65049764988597 ] } },
{ "type": "Feature", "properties": { "PRIMARYADDRESS": "3559 US ROUTE 2", "TOWNNAME": "NORTH HERO", "ESN": 236.0, "SITETYPE": "FIRE STATION", "Department_Type": "Volunteer Department", "Department_Name": "NORTH HERO" }, "geometry": { "type": "Point", "coordinates": [ -73.290653166710882, 44.816864484194816 ] } },
{ "type": "Feature", "properties": { "PRIMARYADDRESS": "5380 SHELBURNE RD", "TOWNNAME": "SHELBURNE", "ESN": 251.0, "SITETYPE": "FIRE STATION", "Department_Type": "Volunteer Department", "Department_Name": "SHELBURNE" }, "geometry": { "type": "Point", "coordinates": [ -73.229228163977524, 44.379558705196246 ] } },
{ "type": "Feature", "properties": { "PRIMARYADDRESS": "1419 VT ROUTE 114", "TOWNNAME": "EAST HAVEN", "ESN": 274.0, "SITETYPE": "FIRE STATION", "Department_Type": "Volunteer Department", "Department_Name": "EAST BURKE" }, "geometry": { "type": "Point", "coordinates": [ -71.891331458285237, 44.659027132641206 ] } },
{ "type": "Feature", "properties": { "PRIMARYADDRESS": "28 SOUTHGATE LOOP", "TOWNNAME": "BRIDGEWATER", "ESN": 195.0, "SITETYPE": "FIRE STATION", "Department_Type": "Volunteer Department", "Department_Name": "BRIDGEWATER" }, "geometry": { "type": "Point", "coordinates": [ -72.623294662850412, 43.588136678353727 ] } },
{ "type": "Feature", "properties": { "PRIMARYADDRESS": "51 FIREHOUSE RD", "TOWNNAME": "WASHINGTON", "ESN": 124.0, "SITETYPE": "FIRE STATION", "Department_Type": "Volunteer Department", "Department_Name": "WASHINGTON" }, "geometry": { "type": "Point", "coordinates": [ -72.434274769344057, 44.10742164777875 ] } },
{ "type": "Feature", "properties": { "PRIMARYADDRESS": "2788 VT ROUTE 30", "TOWNNAME": "DORSET", "ESN": 175.0, "SITETYPE": "FIRE STATION", "Department_Type": "Volunteer Department", "Department_Name": "DORSET" }, "geometry": { "type": "Point", "coordinates": [ -73.09218125068071, 43.248088242864021 ] } },
{ "type": "Feature", "properties": { "PRIMARYADDRESS": "6850 VT ROUTE 100", "TOWNNAME": "TROY", "ESN": 149.0, "SITETYPE": "FIRE STATION", "Department_Type": "Volunteer Department", "Department_Name": "TROY" }, "geometry": { "type": "Point", "coordinates": [ -72.40707802729149, 44.903257622789972 ] } },
{ "type": "Feature", "properties": { "PRIMARYADDRESS": "64 MACKS MOUNTAIN RD", "TOWNNAME": "PEACHAM", "ESN": 387.0, "SITETYPE": "FIRE STATION", "Department_Type": "Volunteer Department", "Department_Name": "PEACHAM" }, "geometry": { "type": "Point", "coordinates": [ -72.174133741496675, 44.32645749448406 ] } },
{ "type": "Feature", "properties": { "PRIMARYADDRESS": "130 RIVER ST", "TOWNNAME": "BENNINGTON", "ESN": 403.0, "SITETYPE": "FIRE STATION", "Department_Type": "Volunteer Department", "Department_Name": "BENNINGTON" }, "geometry": { "type": "Point", "coordinates": [ -73.199951518792233, 42.882388881926822 ] } },
{ "type": "Feature", "properties": { "PRIMARYADDRESS": "50 TAYLOR MDW", "TOWNNAME": "HANCOCK", "ESN": 129.0, "SITETYPE": "FIRE STATION", "Department_Type": "Volunteer Department", "Department_Name": "HANCOCK" }, "geometry": { "type": "Point", "coordinates": [ -72.839328563146282, 43.922718020227315 ] } },
{ "type": "Feature", "properties": { "PRIMARYADDRESS": "2125 HORTONIA RD", "TOWNNAME": "HUBBARDTON", "ESN": 328.0, "SITETYPE": "FIRE STATION", "Department_Type": "Volunteer Department", "Department_Name": "HUBBARDTON" }, "geometry": { "type": "Point", "coordinates": [ -73.222001512001796, 43.719937592504941 ] } },
{ "type": "Feature", "properties": { "PRIMARYADDRESS": "460 QUAKER VILLAGE RD", "TOWNNAME": "WEYBRIDGE", "ESN": 118.0, "SITETYPE": "FIRE STATION", "Department_Type": "Volunteer Department", "Department_Name": "WEYBRIDGE" }, "geometry": { "type": "Point", "coordinates": [ -73.212967505931616, 44.045285457594396 ] } },
{ "type": "Feature", "properties": { "PRIMARYADDRESS": "698 VT ROUTE 30", "TOWNNAME": "NEWFANE", "ESN": 275.0, "SITETYPE": "FIRE STATION", "Department_Type": "Volunteer Department", "Department_Name": "NEWBROOK" }, "geometry": { "type": "Point", "coordinates": [ -72.650233104901758, 42.992940278137816 ] } },
{ "type": "Feature", "properties": { "PRIMARYADDRESS": "249 MEADOW ST", "TOWNNAME": "WILLIAMSTOWN", "ESN": 120.0, "SITETYPE": "FIRE STATION", "Department_Type": "Volunteer Department", "Department_Name": "WILLIAMSTOWN" }, "geometry": { "type": "Point", "coordinates": [ -72.536164956087219, 44.122976051030392 ] } },
{ "type": "Feature", "properties": { "PRIMARYADDRESS": "60 FIRE HOUSE RD", "TOWNNAME": "ALBURGH", "ESN": 353.0, "SITETYPE": "FIRE STATION", "Department_Type": "Volunteer Department", "Department_Name": "ALBURGH" }, "geometry": { "type": "Point", "coordinates": [ -73.300946839065901, 44.977493685549938 ] } },
{ "type": "Feature", "properties": { "PRIMARYADDRESS": "528 S BARRE RD", "TOWNNAME": "BARRE TOWN", "ESN": 399.0, "SITETYPE": "FIRE STATION", "Department_Type": "Volunteer Department", "Department_Name": "BARRE TOWN" }, "geometry": { "type": "Point", "coordinates": [ -72.507559213426674, 44.172137973408276 ] } },
{ "type": "Feature", "properties": { "PRIMARYADDRESS": "23 SHUNPIKE RD", "TOWNNAME": "SHREWSBURY", "ESN": 380.0, "SITETYPE": "FIRE STATION", "Department_Type": "Volunteer Department", "Department_Name": "SHREWSBURY" }, "geometry": { "type": "Point", "coordinates": [ -72.880884014299042, 43.492499833061487 ] } },
{ "type": "Feature", "properties": { "PRIMARYADDRESS": "1839 MAIN ST", "TOWNNAME": "NEW HAVEN", "ESN": 309.0, "SITETYPE": "FIRE STATION", "Department_Type": "Volunteer Department", "Department_Name": "NEW HAVEN" }, "geometry": { "type": "Point", "coordinates": [ -73.145419976455898, 44.125219291617618 ] } },
{ "type": "Feature", "properties": { "PRIMARYADDRESS": "5809 VT ROUTE 100", "TOWNNAME": "HYDE PARK", "ESN": 152.0, "SITETYPE": "FIRE STATION", "Department_Type": "Volunteer Department", "Department_Name": "NORTH HYDE PARK-EDEN" }, "geometry": { "type": "Point", "coordinates": [ -72.596544751846977, 44.674385323450515 ] } },
{ "type": "Feature", "properties": { "PRIMARYADDRESS": "39 ELM ST", "TOWNNAME": "CASTLETON", "ESN": 382.0, "SITETYPE": "FIRE STATION", "Department_Type": "Volunteer Department", "Department_Name": "CASTLETON" }, "geometry": { "type": "Point", "coordinates": [ -73.177242519813689, 43.611240378750246 ] } },
{ "type": "Feature", "properties": { "PRIMARYADDRESS": "128 WALL ST", "TOWNNAME": "NORTHFIELD", "ESN": 134.0, "SITETYPE": "FIRE STATION", "Department_Type": "Volunteer Department", "Department_Name": "NORTHFIELD" }, "geometry": { "type": "Point", "coordinates": [ -72.658778274738694, 44.148804217650778 ] } },
{ "type": "Feature", "properties": { "PRIMARYADDRESS": "42 VT ROUTE 5A", "TOWNNAME": "BURKE", "ESN": 434.0, "SITETYPE": "FIRE STATION", "Department_Type": "Volunteer Department", "Department_Name": "WEST BURKE" }, "geometry": { "type": "Point", "coordinates": [ -71.979233828928031, 44.642056943494261 ] } },
{ "type": "Feature", "properties": { "PRIMARYADDRESS": "32 STRONG ST", "TOWNNAME": "BURLINGTON", "ESN": 355.0, "SITETYPE": "FIRE STATION", "Department_Type": "Career Department", "Department_Name": "BURLINGTON" }, "geometry": { "type": "Point", "coordinates": [ -73.22275809185318, 44.485587358635826 ] } },
{ "type": "Feature", "properties": { "PRIMARYADDRESS": "1429 CREAMERY RD", "TOWNNAME": "RYEGATE", "ESN": 139.0, "SITETYPE": "FIRE STATION", "Department_Type": "Volunteer Department", "Department_Name": "RYEGATE" }, "geometry": { "type": "Point", "coordinates": [ -72.14288214017877, 44.189336133310604 ] } },
{ "type": "Feature", "properties": { "PRIMARYADDRESS": "103 ELLIOT ST", "TOWNNAME": "BRATTLEBORO", "ESN": 354.0, "SITETYPE": "FIRE STATION", "Department_Type": "Career Department", "Department_Name": "BRATTLEBORO" }, "geometry": { "type": "Point", "coordinates": [ -72.560639235108752, 42.8516787854185 ] } },
{ "type": "Feature", "properties": { "PRIMARYADDRESS": "5458 BROAD BROOK RD", "TOWNNAME": "BARNARD", "ESN": 364.0, "SITETYPE": "FIRE STATION", "Department_Type": "Volunteer Department", "Department_Name": "BROADBROOK" }, "geometry": { "type": "Point", "coordinates": [ -72.542858269915442, 43.74351897848517 ] } },
{ "type": "Feature", "properties": { "PRIMARYADDRESS": "120 MAIN ST", "TOWNNAME": "WINOOSKI", "ESN": 362.0, "SITETYPE": "FIRE STATION", "Department_Type": "Volunteer Department", "Department_Name": "WINOOSKI" }, "geometry": { "type": "Point", "coordinates": [ -73.186922230670575, 44.493178886776974 ] } },
{ "type": "Feature", "properties": { "PRIMARYADDRESS": "53 FIREHOUSE RD", "TOWNNAME": "SHOREHAM", "ESN": 239.0, "SITETYPE": "FIRE STATION", "Department_Type": "Volunteer Department", "Department_Name": "SHOREHAM" }, "geometry": { "type": "Point", "coordinates": [ -73.313790348096305, 43.892905675327249 ] } },
{ "type": "Feature", "properties": { "PRIMARYADDRESS": "2534 VT ROUTE 100", "TOWNNAME": "LOWELL", "ESN": 428.0, "SITETYPE": "FIRE STATION", "Department_Type": "Volunteer Department", "Department_Name": "LOWELL" }, "geometry": { "type": "Point", "coordinates": [ -72.44835406737171, 44.800754108326437 ] } },
{ "type": "Feature", "properties": { "PRIMARYADDRESS": "39 GRANGE HALL RD", "TOWNNAME": "CLARENDON", "ESN": 222.0, "SITETYPE": "FIRE STATION", "Department_Type": "Volunteer Department", "Department_Name": "CLARENDON" }, "geometry": { "type": "Point", "coordinates": [ -72.968017194553113, 43.564235211460982 ] } },
{ "type": "Feature", "properties": { "PRIMARYADDRESS": "132 NORTH AVE", "TOWNNAME": "BURLINGTON", "ESN": 355.0, "SITETYPE": "FIRE STATION", "Department_Type": "Career Department", "Department_Name": "BURLINGTON" }, "geometry": { "type": "Point", "coordinates": [ -73.222820208894746, 44.485560065274242 ] } },
{ "type": "Feature", "properties": { "PRIMARYADDRESS": "587 PLEASANT ST", "TOWNNAME": "BETHEL", "ESN": 464.0, "SITETYPE": "FIRE STATION", "Department_Type": "Volunteer Department", "Department_Name": "BETHEL" }, "geometry": { "type": "Point", "coordinates": [ -72.646304832404667, 43.836066836631424 ] } },
{ "type": "Feature", "properties": { "PRIMARYADDRESS": "239 ELM ST", "TOWNNAME": "DERBY", "ESN": 246.0, "SITETYPE": "FIRE STATION", "Department_Type": "Volunteer Department", "Department_Name": "DERBY LINE" }, "geometry": { "type": "Point", "coordinates": [ -72.106006911928517, 45.002123954670317 ] } },
{ "type": "Feature", "properties": { "PRIMARYADDRESS": "9461 VT ROUTE 36", "TOWNNAME": "FAIRFIELD", "ESN": 187.0, "SITETYPE": "FIRE STATION", "Department_Type": "Volunteer Department", "Department_Name": "FAIRFIELD" }, "geometry": { "type": "Point", "coordinates": [ -72.858521851154464, 44.785241600223749 ] } },
{ "type": "Feature", "properties": { "PRIMARYADDRESS": "4103 MAIN ST", "TOWNNAME": "WAITSFIELD", "ESN": 282.0, "SITETYPE": "FIRE STATION", "Department_Type": "Volunteer Department", "Department_Name": "WAITSFIELD-FAYSTON" }, "geometry": { "type": "Point", "coordinates": [ -72.820348458266793, 44.193094001135577 ] } },
{ "type": "Feature", "properties": { "PRIMARYADDRESS": "373 E MAIN ST", "TOWNNAME": "MIDDLEBURY", "ESN": 283.0, "SITETYPE": "FIRE STATION", "Department_Type": "Volunteer Department", "Department_Name": "MIDDLEBURY" }, "geometry": { "type": "Point", "coordinates": [ -73.105125685346493, 43.973578837143293 ] } },
{ "type": "Feature", "properties": { "PRIMARYADDRESS": "153 CHURCH ST", "TOWNNAME": "CAMBRIDGE", "ESN": 113.0, "SITETYPE": "FIRE STATION", "Department_Type": "Volunteer Department", "Department_Name": "CAMBRIDGE" }, "geometry": { "type": "Point", "coordinates": [ -72.832503907546766, 44.643592094207307 ] } },
{ "type": "Feature", "properties": { "PRIMARYADDRESS": "5988 VT ROUTE 140 E", "TOWNNAME": "WALLINGFORD", "ESN": 376.0, "SITETYPE": "FIRE STATION", "Department_Type": "Volunteer Department", "Department_Name": "EAST WALLINGFORD" }, "geometry": { "type": "Point", "coordinates": [ -72.879640130825834, 43.450877364805827 ] } },
{ "type": "Feature", "properties": { "PRIMARYADDRESS": "3137 VT ROUTE 346", "TOWNNAME": "POWNAL", "ESN": 390.0, "SITETYPE": "FIRE STATION", "Department_Type": "Volunteer Department", "Department_Name": "POWNAL" }, "geometry": { "type": "Point", "coordinates": [ -73.266056091438728, 42.798635831113764 ] } },
{ "type": "Feature", "properties": { "PRIMARYADDRESS": "7113 VT ROUTE 105", "TOWNNAME": "CHARLESTON", "ESN": 462.0, "SITETYPE": "FIRE STATION", "Department_Type": "Volunteer Department", "Department_Name": "CHARLESTON" }, "geometry": { "type": "Point", "coordinates": [ -71.989186836226608, 44.838305889597947 ] } },
{ "type": "Feature", "properties": { "PRIMARYADDRESS": "844 CHURCH RD", "TOWNNAME": "COLCHESTER", "ESN": 320.0, "SITETYPE": "FIRE STATION", "Department_Type": "Volunteer Department", "Department_Name": "COLCHESTER" }, "geometry": { "type": "Point", "coordinates": [ -73.250736547563051, 44.538715192759639 ] } },
{ "type": "Feature", "properties": { "PRIMARYADDRESS": "1558 NEWARK ST", "TOWNNAME": "NEWARK", "ESN": 147.0, "SITETYPE": "FIRE STATION", "Department_Type": "Volunteer Department", "Department_Name": "NEWARK" }, "geometry": { "type": "Point", "coordinates": [ -71.949334223592317, 44.691209328155786 ] } },
{ "type": "Feature", "properties": { "PRIMARYADDRESS": "118 BRANCH RD", "TOWNNAME": "HALIFAX", "ESN": 325.0, "SITETYPE": "FIRE STATION", "Department_Type": "Volunteer Department", "Department_Name": "HALIFAX" }, "geometry": { "type": "Point", "coordinates": [ -72.770166171925553, 42.785909470593886 ] } },
{ "type": "Feature", "properties": { "PRIMARYADDRESS": "290 WHITE RD", "TOWNNAME": "WINDHAM", "ESN": 351.0, "SITETYPE": "FIRE STATION", "Department_Type": "Volunteer Department", "Department_Name": "WINDHAM" }, "geometry": { "type": "Point", "coordinates": [ -72.721982846304869, 43.21619837074055 ] } },
{ "type": "Feature", "properties": { "PRIMARYADDRESS": "2947 MAIN ST", "TOWNNAME": "CABOT", "ESN": 193.0, "SITETYPE": "FIRE STATION", "Department_Type": "Volunteer Department", "Department_Name": "CABOT" }, "geometry": { "type": "Point", "coordinates": [ -72.313499213054271, 44.401309618867025 ] } },
{ "type": "Feature", "properties": { "PRIMARYADDRESS": "15 FOURTH ST", "TOWNNAME": "BARRE CITY", "ESN": 298.0, "SITETYPE": "LAW ENFORCEMENT", "Department_Type": "Career Department", "Department_Name": "BARRE CITY" }, "geometry": { "type": "Point", "coordinates": [ -72.512789131914744, 44.2089044027136 ] } },
{ "type": "Feature", "properties": { "PRIMARYADDRESS": "170 ROCKINGHAM ST", "TOWNNAME": "BELLOWS FALLS", "ESN": 443.0, "SITETYPE": "GOVERNMENT", "Department_Type": "Combination", "Department_Name": "BELLOWS FALLS" }, "geometry": { "type": "Point", "coordinates": [ -72.453578852718735, 43.139056687926399 ] } },
{ "type": "Feature", "properties": { "PRIMARYADDRESS": "5 N PARK PL", "TOWNNAME": "FAIR HAVEN", "ESN": 322.0, "SITETYPE": "TOWN OFFICE", "Department_Type": "Volunteer Department", "Department_Name": "FAIR HAVEN" }, "geometry": { "type": "Point", "coordinates": [ -73.266863436606684, 43.595287979234179 ] } },
{ "type": "Feature", "properties": { "PRIMARYADDRESS": "2996 VT ROUTE 78", "TOWNNAME": "HIGHGATE", "ESN": 190.0, "SITETYPE": "TOWN OFFICE", "Department_Type": "Volunteer Department", "Department_Name": "HIGHGATE" }, "geometry": { "type": "Point", "coordinates": [ -73.046865974522632, 44.938072706883368 ] } },
{ "type": "Feature", "properties": { "PRIMARYADDRESS": "68 TOWN OFFICE RD", "TOWNNAME": "PLYMOUTH", "ESN": 278.0, "SITETYPE": "GOVERNMENT", "Department_Type": "Volunteer Department", "Department_Name": "PLYMOUTH" }, "geometry": { "type": "Point", "coordinates": [ -72.742912932213144, 43.534197845352068 ] } },
{ "type": "Feature", "properties": { "PRIMARYADDRESS": "37 DANE RD", "TOWNNAME": "SHEFFIELD", "ESN": 138.0, "SITETYPE": "TOWN OFFICE", "Department_Type": "Volunteer Department", "Department_Name": "SHEFFIELD-WHEELOCK" }, "geometry": { "type": "Point", "coordinates": [ -72.116890829126078, 44.600092347513602 ] } },
{ "type": "Feature", "properties": { "PRIMARYADDRESS": "1996 BLACKMER BLVD", "TOWNNAME": "STOCKBRIDGE", "ESN": 273.0, "SITETYPE": "TOWN GARAGE", "Department_Type": "Volunteer Department", "Department_Name": "STOCKBRIDGE" }, "geometry": { "type": "Point", "coordinates": [ -72.750453299126676, 43.774833936254744 ] } },
{ "type": "Feature", "properties": { "PRIMARYADDRESS": "350 S MAIN ST", "TOWNNAME": "STOWE", "ESN": 112.0, "SITETYPE": "LAW ENFORCEMENT", "Department_Type": "Volunteer Department", "Department_Name": "STOWE" }, "geometry": { "type": "Point", "coordinates": [ -72.691438233722195, 44.462352709222777 ] } },
{ "type": "Feature", "properties": { "PRIMARYADDRESS": "29 UNION ST", "TOWNNAME": "WINDSOR", "ESN": 200.0, "SITETYPE": "LAW ENFORCEMENT", "Department_Type": "Career Department", "Department_Name": "WINDSOR" }, "geometry": { "type": "Point", "coordinates": [ -72.392553041144069, 43.476626419460047 ] } },
{ "type": "Feature", "properties": { "PRIMARYADDRESS": "48 MAIN ST", "TOWNNAME": "RICHFORD", "ESN": 192.0, "SITETYPE": "AMBULANCE SERVICE", "Department_Type": "Volunteer Department", "Department_Name": "RICHFORD" }, "geometry": { "type": "Point", "coordinates": [ -72.673031832265323, 44.995837035326524 ] } },
{ "type": "Feature", "properties": { "PRIMARYADDRESS": "1187 MAIN ST", "TOWNNAME": "SAINT JOHNSBURY", "ESN": 384.0, "SITETYPE": "LAW ENFORCEMENT", "Department_Type": "Career Department", "Department_Name": "SAINT JOHNSBURY" }, "geometry": { "type": "Point", "coordinates": [ -72.021467040996981, 44.418680224495219 ] } },
{ "type": "Feature", "properties": { "PRIMARYADDRESS": "120 FIRST ST", "TOWNNAME": "SWANTON", "ESN": 360.0, "SITETYPE": "LAW ENFORCEMENT", "Department_Type": "Volunteer Department", "Department_Name": "SWANTON" }, "geometry": { "type": "Point", "coordinates": [ -73.112980679020467, 44.920695262463724 ] } },
{ "type": "Feature", "properties": { "PRIMARYADDRESS": "46 TOWN GARAGE RD", "TOWNNAME": "CRAFTSBURY", "ESN": 145.0, "SITETYPE": "TOWN GARAGE", "Department_Type": "Volunteer Department", "Department_Name": "CRAFTSBURY" }, "geometry": { "type": "Point", "coordinates": [ -72.37118067408008, 44.636935350006745 ] } },
{ "type": "Feature", "properties": { "PRIMARYADDRESS": "12 ROUTE 215", "TOWNNAME": "WALDEN", "ESN": 241.0, "SITETYPE": "GOVERNMENT", "Department_Type": "Volunteer Department", "Department_Name": "WALDEN" }, "geometry": { "type": "Point", "coordinates": [ -72.257134706835942, 44.452276476825816 ] } }
]
}
